[{"ods": "A81001", "name": "THE DENSHAM SURGERY", "postcode": "TS18 1HU", "lat": 54.561637, "lng": -1.318999, "pcn_name": "", "pcn_code": "", "icb": "", "patients": 3747}, {"ods": "A81002", "name": "QUEENS PARK MEDICAL CENTRE", "postcode": "TS18 2AW", "lat": 54.569175, "lng": -1.313893, "pcn_name": "North Stockton PCN", "pcn_code": "U07032", "icb": "NHS North East and North Cumbria ICB", "patients": 18654}, {"ods": "A81004", "name": "ACKLAM MEDICAL CENTRE", "postcode": "TS5 8SB", "lat": 54.538198, "lng": -1.262142, "pcn_name": "Greater Middlesbrough PCN", "pcn_code": "U02671", "icb": "NHS North East and North Cumbria ICB", "patients": 11437}, {"ods": "A81005", "name": "SPRINGWOOD SURGERY", "postcode": "TS14 7DJ", "lat": 54.53261, "lng": -1.055459, "pcn_name": "East Cleveland PCN", "pcn_code": "U07842", "icb": "NHS North East and North Cumbria ICB", "patients": 7571}, {"ods": "A81006", "name": "TENNANT STREET MEDICAL PRACTICE", "postcode": "TS18 2AT", "lat": 54.568616, "lng": -1.313593, "pcn_name": "North Stockton PCN", "pcn_code": "U07032", "icb": "NHS North East and North Cumbria ICB", "patients": 14584}, {"ods": "A81007", "name": "BANKHOUSE SURGERY", "postcode": "TS24 7PW", "lat": 54.682342, "lng": -1.214164, "pcn_name": "One Life Hartlepool PCN", "pcn_code": "U27349", "icb": "NHS North East and North Cumbria ICB", "patients": 10436}, {"ods": "A81009", "name": "VILLAGE MEDICAL CENTRE", "postcode": "TS5 6HF", "lat": 54.562285, "lng": -1.241897, "pcn_name": "", "pcn_code": "", "icb": "", "patients": 7898}, {"ods": "A81011", "name": "CHADWICK PRACTICE", "postcode": "TS24 7PW", "lat": 54.682342, "lng": -1.214164, "pcn_name": "One Life Hartlepool PCN", "pcn_code": "U27349", "icb": "NHS North East and North Cumbria ICB", "patients": 12043}, {"ods": "A81012", "name": "WESTBOURNE MEDICAL CENTRE", "postcode": "TS3 6AL", "lat": 54.571738, "lng": -1.216246, "pcn_name": "Greater Middlesbrough PCN", "pcn_code": "U02671", "icb": "NHS North East and North Cumbria ICB", "patients": 5623}, {"ods": "A81013", "name": "BROTTON SURGERY", "postcode": "TS12 2FF", "lat": 54.565279, "lng": -0.936373, "pcn_name": "EAST CLEVELAND PCN", "pcn_code": "U07842", "icb": "NHS North East and North Cumbria ICB", "patients": 7845}, {"ods": "A81014", "name": "QUEENSTREE PRACTICE", "postcode": "TS23 2LA", "lat": 54.608303, "lng": -1.294813, "pcn_name": "Billingham & Norton PCN", "pcn_code": "U94460", "icb": "NHS North East and North Cumbria ICB", "patients": 4097}, {"ods": "A81016", "name": "PARK SURGERY", "postcode": "TS1 3QY", "lat": 54.566667, "lng": -1.240007, "pcn_name": "Central Middlesbrough PCN", "pcn_code": "U55830", "icb": "NHS North East and North Cumbria ICB", "patients": 12684}, {"ods": "A81017", "name": "WOODBRIDGE PRACTICE", "postcode": "TS17 0EE", "lat": 54.538161, "lng": -1.292142, "pcn_name": "Stockton PCN", "pcn_code": "U89141", "icb": "NHS North East and North Cumbria ICB", "patients": 18213}, {"ods": "A81018", "name": "BENTLEY MEDICAL PRACTICE", "postcode": "TS10 4NW", "lat": 54.599299, "lng": -1.068807, "pcn_name": "Redcar Coastal PCN", "pcn_code": "U23714", "icb": "NHS North East and North Cumbria ICB", "patients": 10079}, {"ods": "A81019", "name": "CROSSFELL HEALTH CENTRE", "postcode": "TS3 7RL", "lat": 54.560846, "lng": -1.203898, "pcn_name": "", "pcn_code": "", "icb": "NHS North East and North Cumbria ICB", "patients": 8843}, {"ods": "A81020", "name": "MARTONSIDE MEDICAL CENTRE", "postcode": "TS4 3BU", "lat": 54.553188, "lng": -1.220343, "pcn_name": "Central Middlesbrough PCN", "pcn_code": "U55830", "icb": "NHS North East and North Cumbria ICB", "patients": 7823}, {"ods": "A81021", "name": "NORMANBY MEDICAL CENTRE", "postcode": "TS6 6TD", "lat": 54.571137, "lng": -1.168043, "pcn_name": "ESTON PCN", "pcn_code": "", "icb": "", "patients": 26468}, {"ods": "A81022", "name": "HILLSIDE PRACTICE", "postcode": "TS12 2TG", "lat": 54.563154, "lng": -0.980814, "pcn_name": "East Cleveland PCN", "pcn_code": "U07842", "icb": "NHS North East and North Cumbria ICB", "patients": 9343}, {"ods": "A81023", "name": "THE ENDEAVOUR PRACTICE", "postcode": "TS1 2NX", "lat": 54.575059, "lng": -1.235411, "pcn_name": "", "pcn_code": "", "icb": "", "patients": 7925}, {"ods": "A81025", "name": "THE DOVECOT SURGERY", "postcode": "TS18 1HU", "lat": 54.561637, "lng": -1.318999, "pcn_name": "Stockton PCN", "pcn_code": "U89141", "icb": "NHS North East and North Cumbria ICB", "patients": 4057}, {"ods": "A81026", "name": "LINTHORPE SURGERY", "postcode": "TS5 6HA", "lat": 54.563343, "lng": -1.241615, "pcn_name": "Holgate PCN", "pcn_code": "U85008", "icb": "NHS North East and North Cumbria ICB", "patients": 20449}, {"ods": "A81027", "name": "YARM MEDICAL PRACTICE", "postcode": "TS15 9DD", "lat": 54.505085, "lng": -1.355828, "pcn_name": "Bytes PCN", "pcn_code": "U63844", "icb": "NHS North East and North Cumbria ICB", "patients": 14232}, {"ods": "A81029", "name": "PROSPECT SURGERY", "postcode": "TS1 2NX", "lat": 54.575059, "lng": -1.235411, "pcn_name": "Central Middlesbrough PCN", "pcn_code": "U55830", "icb": "NHS North East and North Cumbria ICB", "patients": 6730}, {"ods": "A81030", "name": "BOROUGH ROAD & NUNTHORPE MEDICAL GROUP", "postcode": "TS1 3RY", "lat": 54.571979, "lng": -1.227224, "pcn_name": "Holgate PCN", "pcn_code": "U85008", "icb": "NHS North East and North Cumbria ICB", "patients": 17108}, {"ods": "A81031", "name": "HAVELOCK GRANGE PRACTICE", "postcode": "TS24 7PW", "lat": 54.682342, "lng": -1.214164, "pcn_name": "One Life Hartlepool PCN", "pcn_code": "U27349", "icb": "NHS North East and North Cumbria ICB", "patients": 13579}, {"ods": "A81032", "name": "THE GARTH", "postcode": "TS14 7DJ", "lat": 54.53261, "lng": -1.055459, "pcn_name": "East Cleveland PCN", "pcn_code": "U07842", "icb": "NHS North East and North Cumbria ICB", "patients": 11670}, {"ods": "A81034", "name": "THORNABY & BARWICK MEDICAL GROUP", "postcode": "TS17 0EE", "lat": 54.538161, "lng": -1.292142, "pcn_name": "Bytes PCN", "pcn_code": "U63844", "icb": "NHS North East and North Cumbria ICB", "patients": 20836}, {"ods": "A81035", "name": "NEWLANDS MEDICAL CENTRE", "postcode": "TS1 3RX", "lat": 54.571944, "lng": -1.226049, "pcn_name": "", "pcn_code": "", "icb": "", "patients": 9452}, {"ods": "A81036", "name": "NORTON MEDICAL CENTRE", "postcode": "TS20 2UZ", "lat": 54.588708, "lng": -1.308335, "pcn_name": "Billingham & Norton PCN", "pcn_code": "U94460", "icb": "NHS North East and North Cumbria ICB", "patients": 15995}, {"ods": "A81037", "name": "THE ERIMUS PRACTICE", "postcode": "TS1 2NX", "lat": 54.575059, "lng": -1.235411, "pcn_name": "", "pcn_code": "", "icb": "", "patients": 6020}, {"ods": "A81038", "name": "HIRSEL MEDICAL CENTRE", "postcode": "TS3 6AL", "lat": 54.571738, "lng": -1.216246, "pcn_name": "Greater Middlesbrough PCN", "pcn_code": "U02671", "icb": "NHS North East and North Cumbria ICB", "patients": 3680}, {"ods": "A81039", "name": "EAGLESCLIFFE MEDICAL PRACTICE", "postcode": "TS16 9EA", "lat": 54.520025, "lng": -1.348131, "pcn_name": "BYTES PCN", "pcn_code": "", "icb": "NHS North East and North Cumbria ICB", "patients": 13181}, {"ods": "A81040", "name": "MARSH HOUSE MEDICAL PRACTICE", "postcode": "TS23 2DG", "lat": 54.611738, "lng": -1.29223, "pcn_name": "Billingham & Norton PCN", "pcn_code": "U94460", "icb": "NHS North East and North Cumbria ICB", "patients": 8509}, {"ods": "A81041", "name": "HART MEDICAL PRACTICE", "postcode": "TS24 9DN", "lat": 54.704169, "lng": -1.223519, "pcn_name": "Hartlepool PCN", "pcn_code": "U70212", "icb": "NHS North East and North Cumbria ICB", "patients": 9379}, {"ods": "A81042", "name": "SOUTH GRANGE MEDICAL GROUP PRACTICE", "postcode": "TS6 9QG", "lat": 54.569967, "lng": -1.16652, "pcn_name": "", "pcn_code": "", "icb": "", "patients": 15857}, {"ods": "A81044", "name": "MCKENZIE HOUSE SURGERY", "postcode": "TS25 1QU", "lat": 54.672432, "lng": -1.210401, "pcn_name": "Hartlepool Health PCN", "pcn_code": "U40502", "icb": "NHS North East and North Cumbria ICB", "patients": 19482}, {"ods": "A81045", "name": "THE COATHAM ROAD SURGERY", "postcode": "TS10 1SR", "lat": 54.617378, "lng": -1.071941, "pcn_name": "Redcar Coastal PCN", "pcn_code": "U23714", "icb": "NHS North East and North Cumbria ICB", "patients": 6266}, {"ods": "A81046", "name": "WOODLANDS FAMILY MEDICAL CENTRE", "postcode": "TS18 1YE", "lat": 54.561227, "lng": -1.321217, "pcn_name": "Stockton PCN", "pcn_code": "U89141", "icb": "NHS North East and North Cumbria ICB", "patients": 12133}, {"ods": "A81048", "name": "ZETLAND MEDICAL PRACTICE", "postcode": "TS11 7BL", "lat": 54.591713, "lng": -1.016408, "pcn_name": "Redcar Coastal PCN", "pcn_code": "U23714", "icb": "NHS North East and North Cumbria ICB", "patients": 7153}, {"ods": "A81049", "name": "KINGS MEDICAL CENTRE", "postcode": "TS3 6AL", "lat": 54.571738, "lng": -1.216246, "pcn_name": "", "pcn_code": "", "icb": "", "patients": 6334}, {"ods": "A81051", "name": "CAMBRIDGE MEDICAL GROUP", "postcode": "TS5 5NN", "lat": 54.554162, "lng": -1.252314, "pcn_name": "Eston PCN", "pcn_code": "U85257", "icb": "NHS North East and North Cumbria ICB", "patients": 7253}, {"ods": "A81052", "name": "THE GREEN HOUSE SURGERY", "postcode": "TS10 4NW", "lat": 54.599299, "lng": -1.068807, "pcn_name": "Redcar Coastal PCN", "pcn_code": "U23714", "icb": "NHS North East and North Cumbria ICB", "patients": 10166}, {"ods": "A81053", "name": "WOODSIDE SURGERY", "postcode": "TS13 4HW", "lat": 54.553923, "lng": -0.886804, "pcn_name": "East Cleveland PCN", "pcn_code": "U07842", "icb": "NHS North East and North Cumbria ICB", "patients": 5793}, {"ods": "A81054", "name": "THE SALTSCAR SURGERY", "postcode": "TS10 1UA", "lat": 54.616294, "lng": -1.073653, "pcn_name": "Redcar Coastal PCN", "pcn_code": "U23714", "icb": "NHS North East and North Cumbria ICB", "patients": 8419}, {"ods": "A81056", "name": "MELROSE SURGERY", "postcode": "TS23 2JW", "lat": 54.609409, "lng": -1.287316, "pcn_name": "Billingham & Norton PCN", "pcn_code": "U94460", "icb": "NHS North East and North Cumbria ICB", "patients": 2429}, {"ods": "A81057", "name": "KINGSWAY MEDICAL CENTRE", "postcode": "TS23 2LS", "lat": 54.606471, "lng": -1.289024, "pcn_name": "Billingham & Norton PCN", "pcn_code": "U94460", "icb": "NHS North East and North Cumbria ICB", "patients": 10093}, {"ods": "A81058", "name": "COULBY MEDICAL PRACTICE", "postcode": "TS8 0TL", "lat": 54.524817, "lng": -1.213775, "pcn_name": "GREATER MIDDLESBROUGH PCN", "pcn_code": "U02671", "icb": "NHS North East and North Cumbria ICB", "patients": 9199}, {"ods": "A81060", "name": "WEST QUAY MEDICAL PRACTICE", "postcode": "TS26 8DB", "lat": 54.68525, "lng": -1.217613, "pcn_name": "", "pcn_code": "", "icb": "", "patients": 6249}, {"ods": "A81063", "name": "THE HEADLAND MEDICAL CENTRE", "postcode": "TS24 0NZ", "lat": 54.696651, "lng": -1.18312, "pcn_name": "Hartlepool Health PCN", "pcn_code": "U40502", "icb": "NHS North East and North Cumbria ICB", "patients": 5330}, {"ods": "A81064", "name": "THE DISCOVERY PRACTICE", "postcode": "TS1 2NX", "lat": 54.575059, "lng": -1.235411, "pcn_name": "Central Middlesbrough PCN", "pcn_code": "U55830", "icb": "NHS North East and North Cumbria ICB", "patients": 7772}, {"ods": "A81065", "name": "THE ESTON SURGERY", "postcode": "TS6 6TD", "lat": 54.571137, "lng": -1.168043, "pcn_name": "Eston PCN", "pcn_code": "U85257", "icb": "NHS North East and North Cumbria ICB", "patients": 3789}, {"ods": "A81066", "name": "PARK LANE SURGERY", "postcode": "TS21 1JS", "lat": 54.60465, "lng": -1.425143, "pcn_name": "Bytes PCN", "pcn_code": "U63844", "icb": "NHS North East and North Cumbria ICB", "patients": 5560}, {"ods": "A81067", "name": "ALMA MEDICAL CENTRE", "postcode": "TS18 2BP", "lat": 54.569502, "lng": -1.317661, "pcn_name": "North Stockton PCN", "pcn_code": "U07032", "icb": "NHS North East and North Cumbria ICB", "patients": 10525}, {"ods": "A81070", "name": "MCKENZIE GROUP PRACTICE", "postcode": "TS25 3DQ", "lat": 54.660476, "lng": -1.239281, "pcn_name": "Hartlepool Health PCN", "pcn_code": "U40502", "icb": "NHS North East and North Cumbria ICB", "patients": 6169}, {"ods": "A81602", "name": "DR RASOOL", "postcode": "TS23 2DG", "lat": 54.611738, "lng": -1.29223, "pcn_name": "BILLINGHAM and NORTON PCN", "pcn_code": "U94460", "icb": "NHS North East and North Cumbria ICB", "patients": 2254}, {"ods": "A81608", "name": "ELM TREE SURGERY", "postcode": "TS17 6PG", "lat": 54.554886, "lng": -1.29966, "pcn_name": "Stockton PCN", "pcn_code": "U89141", "icb": "NHS North East and North Cumbria ICB", "patients": 18548}, {"ods": "A81610", "name": "THE ROSEBERRY PRACTICE", "postcode": "TS23 2DG", "lat": 54.611738, "lng": -1.29223, "pcn_name": "Billingham & Norton PCN", "pcn_code": "U94460", "icb": "NHS North East and North Cumbria ICB", "patients": 7677}, {"ods": "A81611", "name": "PARKWAY MEDICAL CENTRE", "postcode": "TS8 0TL", "lat": 54.524817, "lng": -1.213775, "pcn_name": "Greater Middlesbrough PCN", "pcn_code": "U02671", "icb": "NHS North East and North Cumbria ICB", "patients": 9766}, {"ods": "A81612", "name": "THE PATEL PRACTICE", "postcode": "TS25 1AX", "lat": 54.661414, "lng": -1.188586, "pcn_name": "Hartlepool PCN", "pcn_code": "U70212", "icb": "NHS North East and North Cumbria ICB", "patients": 4145}, {"ods": "A81618", "name": "HUNTCLIFF SURGERY", "postcode": "TS12 1BJ", "lat": 54.582776, "lng": -0.974707, "pcn_name": "Redcar Coastal PCN", "pcn_code": "U23714", "icb": "NHS North East and North Cumbria ICB", "patients": 9895}, {"ods": "A81621", "name": "THORNTREE SURGERY", "postcode": "TS3 9NB", "lat": 54.565221, "lng": -1.183474, "pcn_name": "Central Middlesbrough PCN", "pcn_code": "U55830", "icb": "NHS North East and North Cumbria ICB", "patients": 2869}, {"ods": "A81622", "name": "GLADSTONE HOUSE SURGERY", "postcode": "TS26 8DF", "lat": 54.685211, "lng": -1.218591, "pcn_name": "Hartlepool PCN", "pcn_code": "U70212", "icb": "NHS North East and North Cumbria ICB", "patients": 5600}, {"ods": "A81629", "name": "RIVERSIDE MEDICAL PRACTICE", "postcode": "TS18 2AP", "lat": 54.56887, "lng": -1.315584, "pcn_name": "Stockton PCN", "pcn_code": "U89141", "icb": "NHS North East and North Cumbria ICB", "patients": 10916}, {"ods": "A81630", "name": "FOUNDATIONS", "postcode": "TS5 4EQ", "lat": 54.563453, "lng": -1.257913, "pcn_name": "", "pcn_code": "", "icb": "", "patients": 751}, {"ods": "A81631", "name": "WEST VIEW MILLENIUM SURGERY A", "postcode": "TS24 9LJ", "lat": 54.709889, "lng": -1.22282, "pcn_name": "HARTLEPOOL PCN", "pcn_code": "", "icb": "", "patients": 7477}, {"ods": "A81634", "name": "THE ARRIVAL PRACTICE", "postcode": "TS18 2EP", "lat": 54.572139, "lng": -1.311956, "pcn_name": "", "pcn_code": "", "icb": "", "patients": 0}, {"ods": "A82003", "name": "ULVERSTON MEDICAL PRACTICE", "postcode": "LA12 7BT", "lat": 54.198891, "lng": -3.097833, "pcn_name": "Mid Furness PCN", "pcn_code": "U25520", "icb": "NHS Lancashire and South Cumbria ICB", "patients": 11913}, {"ods": "A82004", "name": "ALSTON MEDICAL PRACTICE", "postcode": "CA9 3QU", "lat": 54.810742, "lng": -2.440174, "pcn_name": "Eden (Cumbria) PCN", "pcn_code": "U08085", "icb": "NHS North East and North Cumbria ICB", "patients": 2207}, {"ods": "A82005", "name": "AMBLESIDE HEALTH CENTRE", "postcode": "LA22 9BP", "lat": 54.435059, "lng": -2.96636, "pcn_name": "Grange And Lakes PCN", "pcn_code": "U59570", "icb": "NHS Lancashire and South Cumbria ICB", "patients": 5691}, {"ods": "A82006", "name": "APPLEBY MEDICAL PRACTICE", "postcode": "CA16 6QR", "lat": 54.57809, "lng": -2.492998, "pcn_name": "Eden (Cumbria) PCN", "pcn_code": "U08085", "icb": "NHS North East and North Cumbria ICB", "patients": 5136}, {"ods": "A82007", "name": "DUKE STREET SURGERY", "postcode": "LA14 1LF", "lat": 54.110679, "lng": -3.225657, "pcn_name": "Barrow And Millom PCN", "pcn_code": "U17992", "icb": "NHS Lancashire and South Cumbria ICB", "patients": 11469}, {"ods": "A82008", "name": "NORWOOD MEDICAL CENTRE", "postcode": "LA14 5ES", "lat": 54.119209, "lng": -3.222971, "pcn_name": "Barrow And Millom PCN", "pcn_code": "U17992", "icb": "NHS Lancashire and South Cumbria ICB", "patients": 12010}, {"ods": "A82009", "name": "BRIDGEGATE MEDICAL CENTRE", "postcode": "LA13 9SH", "lat": 54.11433, "lng": -3.208692, "pcn_name": "Barrow And Millom PCN", "pcn_code": "U17992", "icb": "NHS Lancashire and South Cumbria ICB", "patients": 9133}, {"ods": "A82010", "name": "ABBEY ROAD SURGERY", "postcode": "LA14 2LB", "lat": 54.109942, "lng": -3.224779, "pcn_name": "Barrow And Millom PCN", "pcn_code": "U17992", "icb": "NHS Lancashire and South Cumbria ICB", "patients": 6696}, {"ods": "A82012", "name": "BRAMPTON MEDICAL PRACTICE", "postcode": "CA8 1NL", "lat": 54.94237, "lng": -2.734846, "pcn_name": "Carlisle Rural PCN", "pcn_code": "U00639", "icb": "NHS North East and North Cumbria ICB", "patients": 16717}, {"ods": "A82013", "name": "UPPER EDEN MEDICAL PRACTICE", "postcode": "CA17 4RB", "lat": 54.474727, "lng": -2.350139, "pcn_name": "Eden (Cumbria) PCN", "pcn_code": "U08085", "icb": "NHS North East and North Cumbria ICB", "patients": 6435}, {"ods": "A82014", "name": "CALDBECK SURGERY", "postcode": "CA7 8DS", "lat": 54.749871, "lng": -3.050627, "pcn_name": "Keswick & Solway PCN", "pcn_code": "U25680", "icb": "NHS North East and North Cumbria ICB", "patients": 4192}, {"ods": "A82015", "name": "CARLISLE CENTRAL PRACTICE", "postcode": "CA1 1EB", "lat": 54.893802, "lng": -2.928497, "pcn_name": "Carlisle PCN", "pcn_code": "U66688", "icb": "NHS North East and North Cumbria ICB", "patients": 13270}, {"ods": "A82016", "name": "CARLISLE HEALTHCARE", "postcode": "CA1 3UB", "lat": 54.885364, "lng": -2.903502, "pcn_name": "Carlisle Healthcare PCN", "pcn_code": "U92223", "icb": "NHS North East and North Cumbria ICB", "patients": 41027}, {"ods": "A82018", "name": "SPENCER ST SURGERY", "postcode": "CA1 1BP", "lat": 54.894887, "lng": -2.931157, "pcn_name": "Carlisle Healthcare PCN", "pcn_code": "U92223", "icb": "NHS North East and North Cumbria ICB", "patients": 13726}, {"ods": "A82020", "name": "EDEN MEDICAL GROUP", "postcode": "CA2 7AJ", "lat": 54.894174, "lng": -2.952455, "pcn_name": "Carlisle PCN", "pcn_code": "U66688", "icb": "NHS North East and North Cumbria ICB", "patients": 15080}, {"ods": "A82021", "name": "CASTLEGATE AND DERWENT SURGERY", "postcode": "CA13 9HT", "lat": 54.667192, "lng": -3.358501, "pcn_name": "Cockermouth & Maryport PCN", "pcn_code": "U76572", "icb": "NHS North East and North Cumbria ICB", "patients": 17788}, {"ods": "A82022", "name": "DALSTON MEDICAL GROUP", "postcode": "CA5 7PZ", "lat": 54.841382, "lng": -2.985547, "pcn_name": "Keswick & Solway PCN", "pcn_code": "U25680", "icb": "NHS North East and North Cumbria ICB", "patients": 5202}, {"ods": "A82023", "name": "DISTINGTON SURGERY", "postcode": "CA14 5UR", "lat": 54.595313, "lng": -3.541352, "pcn_name": "Copeland PCN", "pcn_code": "U48302", "icb": "NHS North East and North Cumbria ICB", "patients": 6603}, {"ods": "A82024", "name": "SEASCALE HEALTH CENTRE", "postcode": "CA20 1PN", "lat": 54.396756, "lng": -3.479998, "pcn_name": "Copeland PCN", "pcn_code": "U48302", "icb": "NHS North East and North Cumbria ICB", "patients": 5941}, {"ods": "A82025", "name": "CAPTAIN FRENCH SURGERY", "postcode": "LA9 4JE", "lat": 54.323439, "lng": -2.748564, "pcn_name": "Kendal PCN", "pcn_code": "U35939", "icb": "NHS Lancashire and South Cumbria ICB", "patients": 11827}, {"ods": "A82026", "name": "THE JAMES COCHRANE PRACT.", "postcode": "LA9 7HR", "lat": 54.312706, "lng": -2.737133, "pcn_name": "KENDAL PCN", "pcn_code": "", "icb": "", "patients": 17128}, {"ods": "A82027", "name": "STATION HOUSE SURGERY", "postcode": "LA9 6SA", "lat": 54.331889, "lng": -2.739537, "pcn_name": "Kendal PCN", "pcn_code": "U35939", "icb": "NHS Lancashire and South Cumbria ICB", "patients": 10013}, {"ods": "A82028", "name": "CASTLEHEAD MEDICAL CENTRE", "postcode": "CA12 4DB", "lat": 54.597698, "lng": -3.134576, "pcn_name": "Keswick & Solway PCN", "pcn_code": "U25680", "icb": "NHS North East and North Cumbria ICB", "patients": 8346}, {"ods": "A82029", "name": "THE CROFT SURGERY", "postcode": "CA7 5JH", "lat": 54.896921, "lng": -3.202915, "pcn_name": "Keswick & Solway PCN", "pcn_code": "U25680", "icb": "NHS North East and North Cumbria ICB", "patients": 3532}, {"ods": "A82030", "name": "LUNESDALE SURGERY", "postcode": "LA6 2HQ", "lat": 54.200584, "lng": -2.602214, "pcn_name": "Western Dales PCN", "pcn_code": "U59980", "icb": "NHS Lancashire and South Cumbria ICB", "patients": 6508}, {"ods": "A82031", "name": "SHAP MEDICAL PRACTICE", "postcode": "CA10 3LW", "lat": 54.528899, "lng": -2.677936, "pcn_name": "Eden (Cumbria) PCN", "pcn_code": "U08085", "icb": "NHS North East and North Cumbria ICB", "patients": 3318}, {"ods": "A82032", "name": "MARYPORT HEALTH SERVICES", "postcode": "CA15 8EL", "lat": 54.706439, "lng": -3.494532, "pcn_name": "Cockermouth & Maryport PCN", "pcn_code": "U76572", "icb": "NHS North East and North Cumbria ICB", "patients": 13908}, {"ods": "A82033", "name": "WATERLOO HOUSE SURGERY", "postcode": "LA18 4BY", "lat": 54.208948, "lng": -3.268021, "pcn_name": "Barrow And Millom PCN", "pcn_code": "U17992", "icb": "NHS Lancashire and South Cumbria ICB", "patients": 7896}, {"ods": "A82035", "name": "BIRBECK MEDICAL GROUP", "postcode": "CA11 8HW", "lat": 54.656225, "lng": -2.743839, "pcn_name": "Eden (Cumbria) PCN", "pcn_code": "U08085", "icb": "NHS North East and North Cumbria ICB", "patients": 14313}, {"ods": "A82036", "name": "THE LAKES MEDICAL PRACTICE", "postcode": "CA11 8HW", "lat": 54.656225, "lng": -2.743839, "pcn_name": "Eden (Cumbria) PCN", "pcn_code": "U08085", "icb": "NHS North East and North Cumbria ICB", "patients": 11686}, {"ods": "A82037", "name": "SILLOTH GROUP MEDICAL PRACTICE", "postcode": "CA7 4AH", "lat": 54.86971, "lng": -3.393572, "pcn_name": "Keswick & Solway PCN", "pcn_code": "U25680", "icb": "NHS North East and North Cumbria ICB", "patients": 4437}, {"ods": "A82038", "name": "TEMPLE SOWERBY MEDICAL PRACTICE", "postcode": "CA10 1RW", "lat": 54.636786, "lng": -2.605304, "pcn_name": "Eden (Cumbria) PCN", "pcn_code": "U08085", "icb": "NHS North East and North Cumbria ICB", "patients": 4629}, {"ods": "A82039", "name": "DALTON SURGERY", "postcode": "LA15 8AB", "lat": 54.155925, "lng": -3.179815, "pcn_name": "Mid Furness PCN", "pcn_code": "U25520", "icb": "NHS Lancashire and South Cumbria ICB", "patients": 8755}, {"ods": "A82041", "name": "LOWTHER MEDICAL CENTRE", "postcode": "CA28 7RG", "lat": 54.545063, "lng": -3.586393, "pcn_name": "Copeland PCN", "pcn_code": "U48302", "icb": "NHS North East and North Cumbria ICB", "patients": 13747}, {"ods": "A82044", "name": "FELLVIEW HEALTHCARE", "postcode": "CA22 2BD", "lat": 54.482542, "lng": -3.532986, "pcn_name": "Copeland PCN", "pcn_code": "U48302", "icb": "NHS North East and North Cumbria ICB", "patients": 22987}, {"ods": "A82045", "name": "WIGTON GROUP MEDICAL PRACTICE", "postcode": "CA7 9QD", "lat": 54.82033, "lng": -3.159035, "pcn_name": "Keswick & Solway PCN", "pcn_code": "U25680", "icb": "NHS North East and North Cumbria ICB", "patients": 9243}, {"ods": "A82046", "name": "WINDERMERE HEALTH CENTRE", "postcode": "LA23 2EG", "lat": 54.370879, "lng": -2.913424, "pcn_name": "Grange And Lakes PCN", "pcn_code": "U59570", "icb": "NHS Lancashire and South Cumbria ICB", "patients": 4669}, {"ods": "A82047", "name": "JAMES STREET GROUP PRACT", "postcode": "CA14 2DL", "lat": 54.644838, "lng": -3.550292, "pcn_name": "Workington PCN", "pcn_code": "U67303", "icb": "NHS North East and North Cumbria ICB", "patients": 33366}, {"ods": "A82053", "name": "NUTWOOD MEDICAL PRACTICE", "postcode": "LA11 7DJ", "lat": 54.187966, "lng": -2.915665, "pcn_name": "Grange And Lakes PCN", "pcn_code": "U59570", "icb": "NHS Lancashire and South Cumbria ICB", "patients": 7446}, {"ods": "A82055", "name": "ASPATRIA MEDICAL GROUP", "postcode": "CA7 3HH", "lat": 54.762157, "lng": -3.337948, "pcn_name": "Keswick & Solway PCN", "pcn_code": "U25680", "icb": "NHS North East and North Cumbria ICB", "patients": 7377}, {"ods": "A82062", "name": "ATKINSON HEALTH CENTRE", "postcode": "LA14 2LB", "lat": 54.109942, "lng": -3.224779, "pcn_name": "Barrow And Millom PCN", "pcn_code": "U17992", "icb": "NHS Lancashire and South Cumbria ICB", "patients": 6497}, {"ods": "A82064", "name": "WESTCROFT HOUSE SURGERY", "postcode": "CA22 2DB", "lat": 54.483155, "lng": -3.528594, "pcn_name": "Copeland PCN", "pcn_code": "U48302", "icb": "NHS North East and North Cumbria ICB", "patients": 6370}, {"ods": "A82068", "name": "ULVERSTON COMMUNITY HEALTH CENTRE", "postcode": "LA12 7BT", "lat": 54.198891, "lng": -3.097833, "pcn_name": "Mid Furness PCN", "pcn_code": "U25520", "icb": "NHS Lancashire and South Cumbria ICB", "patients": 4754}, {"ods": "A82070", "name": "ST. MARY'S SURGERY", "postcode": "LA23 1BA", "lat": 54.380773, "lng": -2.90884, "pcn_name": "Grange And Lakes PCN", "pcn_code": "U59570", "icb": "#N/A", "patients": 6626}, {"ods": "A82071", "name": "BURNETT EDGAR MEDICAL CTR", "postcode": "LA14 3HY", "lat": 54.107131, "lng": -3.255073, "pcn_name": "Barrow And Millom PCN", "pcn_code": "U17992", "icb": "NHS Lancashire and South Cumbria ICB", "patients": 4139}, {"ods": "A82072", "name": "RISEDALE SURGERY", "postcode": "LA14 2LB", "lat": 54.109942, "lng": -3.224779, "pcn_name": "Barrow And Millom PCN", "pcn_code": "U17992", "icb": "NHS Lancashire and South Cumbria ICB", "patients": 7317}, {"ods": "A82075", "name": "MANSION HOUSE SURGERY", "postcode": "CA28 7BU", "lat": 54.545953, "lng": -3.588422, "pcn_name": "Copeland PCN", "pcn_code": "U48302", "icb": "NHS North East and North Cumbria ICB", "patients": 7662}, {"ods": "A82077", "name": "LIVERPOOL HOUSE SURGERY", "postcode": "LA13 9QY", "lat": 54.112721, "lng": -3.209517, "pcn_name": "", "pcn_code": "", "icb": "", "patients": 5208}, {"ods": "A82608", "name": "SEDBERGH MEDICAL PRACTICE", "postcode": "LA10 5DL", "lat": 54.322391, "lng": -2.535271, "pcn_name": "Western Dales PCN", "pcn_code": "U59980", "icb": "NHS Lancashire and South Cumbria ICB", "patients": 4657}, {"ods": "A82613", "name": "WRAYSDALE HOUSE SURGERY", "postcode": "LA21 8ER", "lat": 54.367255, "lng": -3.07608, "pcn_name": "Grange And Lakes PCN", "pcn_code": "U59570", "icb": "NHS Lancashire and South Cumbria ICB", "patients": 1004}, {"ods": "A82617", "name": "KIRKOSWALD SURGERY", "postcode": "CA10 1DQ", "lat": 54.763777, "lng": -2.692582, "pcn_name": "Eden (Cumbria) PCN", "pcn_code": "U08085", "icb": "NHS North East and North Cumbria ICB", "patients": 2814}, {"ods": "A82620", "name": "GLENRIDDING HEALTH CENTRE", "postcode": "CA11 0PD", "lat": 54.544383, "lng": -2.951274, "pcn_name": "Eden (Cumbria) PCN", "pcn_code": "U08085", "icb": "NHS North East and North Cumbria ICB", "patients": 1015}, {"ods": "A82629", "name": "THE FAMILY PRACTICE", "postcode": "LA14 5SL", "lat": 54.116763, "lng": -3.229279, "pcn_name": "Barrow And Millom PCN", "pcn_code": "U17992", "icb": "NHS Lancashire and South Cumbria ICB", "patients": 2916}, {"ods": "A82631", "name": "COURT THORN SURGERY", "postcode": "CA4 0HP", "lat": 54.801834, "lng": -2.826253, "pcn_name": "Eden (Cumbria) PCN", "pcn_code": "U08085", "icb": "NHS North East and North Cumbria ICB", "patients": 3771}, {"ods": "A82646", "name": "LONGTOWN MEDICAL CENTRE", "postcode": "CA6 5XA", "lat": 55.010511, "lng": -2.96428, "pcn_name": "Carlisle Rural PCN", "pcn_code": "U00639", "icb": "NHS North East and North Cumbria ICB", "patients": 3858}, {"ods": "A82647", "name": "CARTMEL SURGERY", "postcode": "LA11 6PH", "lat": 54.199174, "lng": -2.946985, "pcn_name": "Grange And Lakes PCN", "pcn_code": "U59570", "icb": "NHS Lancashire and South Cumbria ICB", "patients": 3325}, {"ods": "A82650", "name": "HAVERTHWAITE SURGERY", "postcode": "LA12 8AL", "lat": 54.249762, "lng": -2.999729, "pcn_name": "Grange And Lakes PCN", "pcn_code": "U59570", "icb": "NHS Lancashire and South Cumbria ICB", "patients": 3008}, {"ods": "A82651", "name": "DUDDON VALLEY MEDICAL PRACTICE", "postcode": "LA17 7TE", "lat": 54.232419, "lng": -3.184683, "pcn_name": "Mid Furness PCN", "pcn_code": "U25520", "icb": "NHS Lancashire and South Cumbria ICB", "patients": 5006}, {"ods": "A82654", "name": "WARWICK SQUARE GROUP PRACTICE", "postcode": "CA1 1LB", "lat": 54.893141, "lng": -2.926814, "pcn_name": "Carlisle PCN", "pcn_code": "U66688", "icb": "NHS North East and North Cumbria ICB", "patients": 7943}, {"ods": "A83001", "name": "ST ANDREW'S MEDICAL PRACTICE", "postcode": "DL16 6QA", "lat": 54.699644, "lng": -1.598223, "pcn_name": "Sedgefield North PCN", "pcn_code": "U12365", "icb": "NHS North East and North Cumbria ICB", "patients": 15941}, {"ods": "A83003", "name": "WILLINGTON MEDICAL GROUP", "postcode": "DL15 0EQ", "lat": 54.710285, "lng": -1.694347, "pcn_name": "Wear Valley PCN", "pcn_code": "U96202", "icb": "NHS North East and North Cumbria ICB", "patients": 9174}, {"ods": "A83005", "name": "WHINFIELD MEDICAL PRACTICE", "postcode": "DL1 3RT", "lat": 54.546309, "lng": -1.525297, "pcn_name": "DARLINGTON PCN", "pcn_code": "U45102", "icb": "NHS North East and North Cumbria ICB", "patients": 12234}, {"ods": "A83006", "name": "ORCHARD COURT SURGERY", "postcode": "DL3 6HZ", "lat": 54.532373, "lng": -1.566657, "pcn_name": "Darlington PCN", "pcn_code": "U45102", "icb": "NHS North East and North Cumbria ICB", "patients": 8689}, {"ods": "A83007", "name": "BLACKHALL AND PETERLEE PRACTICE", "postcode": "TS27 4LQ", "lat": 54.746911, "lng": -1.289751, "pcn_name": "Easington Central PCN", "pcn_code": "U14615", "icb": "NHS North East and North Cumbria ICB", "patients": 10235}, {"ods": "A83008", "name": "HALLGARTH SURGERY", "postcode": "DL4 2HP", "lat": 54.634893, "lng": -1.643649, "pcn_name": "Sedgefield 1 PCN", "pcn_code": "U37593", "icb": "NHS North East and North Cumbria ICB", "patients": 5381}, {"ods": "A83009", "name": "BRIDGE END SURGERY", "postcode": "DH3 3SL", "lat": 54.859312, "lng": -1.573492, "pcn_name": "Chester Le Street PCN", "pcn_code": "U77096", "icb": "NHS North East and North Cumbria ICB", "patients": 7564}, {"ods": "A83010", "name": "MOORLANDS SURGERY", "postcode": "DL3 9JP", "lat": 54.534227, "lng": -1.577594, "pcn_name": "", "pcn_code": "", "icb": "", "patients": 13157}, {"ods": "A83011", "name": "CLAYPATH & UNIVERSITY MEDICAL GROUP", "postcode": "DH1 1QW", "lat": 54.778709, "lng": -1.567171, "pcn_name": "Claypath & University Medical Group PCN", "pcn_code": "U38486", "icb": "NHS North East and North Cumbria ICB", "patients": 33668}, {"ods": "A83012", "name": "WILLIAM BROWN CENTRE", "postcode": "SR8 5TW", "lat": 54.758004, "lng": -1.331435, "pcn_name": "Easington Central PCN", "pcn_code": "U14615", "icb": "NHS North East and North Cumbria ICB", "patients": 15505}, {"ods": "A83013", "name": "NEASHAM ROAD SURGERY", "postcode": "DL1 4YL", "lat": 54.517268, "lng": -1.542657, "pcn_name": "Darlington PCN", "pcn_code": "U45102", "icb": "NHS North East and North Cumbria ICB", "patients": 13309}, {"ods": "A83014", "name": "BELMONT & SHERBURN MEDICAL GROUP", "postcode": "DH1 2QW", "lat": 54.786157, "lng": -1.528172, "pcn_name": "Durham East PCN", "pcn_code": "U53962", "icb": "NHS North East and North Cumbria ICB", "patients": 6357}, {"ods": "A83015", "name": "STATION VIEW MEDICAL CENTRE", "postcode": "DL14 6AB", "lat": 54.656611, "lng": -1.678241, "pcn_name": "Bishop Auckland PCN", "pcn_code": "U85067", "icb": "NHS North East and North Cumbria ICB", "patients": 9703}, {"ods": "A83016", "name": "TANFIELD VIEW MEDICAL GROUP", "postcode": "DH9 8AD", "lat": 54.869947, "lng": -1.701385, "pcn_name": "Derwentside PCN", "pcn_code": "U70497", "icb": "NHS North East and North Cumbria ICB", "patients": 10804}, {"ods": "A83018", "name": "CONSETT MEDICAL CENTRE", "postcode": "DH8 5YA", "lat": 54.85132, "lng": -1.827769, "pcn_name": "Derwentside PCN", "pcn_code": "U70497", "icb": "NHS North East and North Cumbria ICB", "patients": 16523}, {"ods": "A83020", "name": "NORTH HOUSE SURGERY", "postcode": "DL15 9HU", "lat": 54.717074, "lng": -1.747292, "pcn_name": "Wear Valley PCN", "pcn_code": "U96202", "icb": "NHS North East and North Cumbria ICB", "patients": 13554}, {"ods": "A83021", "name": "AUCKLAND MEDICAL GROUP", "postcode": "DL14 6RP", "lat": 54.648094, "lng": -1.679006, "pcn_name": "Bishop Auckland PCN", "pcn_code": "U85067", "icb": "NHS North East and North Cumbria ICB", "patients": 16088}, {"ods": "A83022", "name": "THE MEDICAL GROUP", "postcode": "DH7 8NH", "lat": 54.748305, "lng": -1.628922, "pcn_name": "Durham West PCN", "pcn_code": "U01989", "icb": "NHS North East and North Cumbria ICB", "patients": 26646}, {"ods": "A83023", "name": "STANLEY MEDICAL GROUP", "postcode": "DH9 0AB", "lat": 54.870038, "lng": -1.698065, "pcn_name": "Derwentside PCN", "pcn_code": "U70497", "icb": "NHS North East and North Cumbria ICB", "patients": 12566}, {"ods": "A83024", "name": "WEST RAINTON SURGERY", "postcode": "DH4 6RQ", "lat": 54.81111, "lng": -1.504994, "pcn_name": "Durham East PCN", "pcn_code": "U53962", "icb": "NHS North East and North Cumbria ICB", "patients": 5521}, {"ods": "A83025", "name": "BISHOPGATE MEDICAL CENTRE", "postcode": "DL14 7EJ", "lat": 54.659113, "lng": -1.676237, "pcn_name": "", "pcn_code": "", "icb": "", "patients": 13603}, {"ods": "A83026", "name": "SACRISTON MEDICAL CENTRE", "postcode": "DH7 6JW", "lat": 54.81962, "lng": -1.628363, "pcn_name": "Chester Le Street PCN", "pcn_code": "U77096", "icb": "NHS North East and North Cumbria ICB", "patients": 10692}, {"ods": "A83027", "name": "COXHOE MEDICAL PRACTICE", "postcode": "DH6 4DH", "lat": 54.714682, "lng": -1.504367, "pcn_name": "Durham East PCN", "pcn_code": "U53962", "icb": "NHS North East and North Cumbria ICB", "patients": 7655}, {"ods": "A83028", "name": "MIDDLE CHARE MEDICAL GROUP", "postcode": "DH3 3QD", "lat": 54.855645, "lng": -1.573126, "pcn_name": "Chester Le Street PCN", "pcn_code": "U77096", "icb": "NHS North East and North Cumbria ICB", "patients": 9271}, {"ods": "A83029", "name": "GREAT LUMLEY SURGERY", "postcode": "DH3 4LE", "lat": 54.837257, "lng": -1.543131, "pcn_name": "Chester Le Street PCN", "pcn_code": "U77096", "icb": "NHS North East and North Cumbria ICB", "patients": 5300}, {"ods": "A83030", "name": "DUNELM MEDICAL PRACTICE", "postcode": "DH7 7DG", "lat": 54.783437, "lng": -1.63608, "pcn_name": "Durham West PCN", "pcn_code": "U01989", "icb": "NHS North East and North Cumbria ICB", "patients": 14338}, {"ods": "A83031", "name": "CARMEL MEDICAL PRACTICE", "postcode": "DL3 8SQ", "lat": 54.527924, "lng": -1.579281, "pcn_name": "Darlington PCN", "pcn_code": "U45102", "icb": "NHS North East and North Cumbria ICB", "patients": 11838}, {"ods": "A83032", "name": "WOODVIEW MEDICAL PRACTICE", "postcode": "DL13 5AF", "lat": 54.612781, "lng": -1.80411, "pcn_name": "Teesdale PCN", "pcn_code": "U31619", "icb": "NHS North East and North Cumbria ICB", "patients": 2631}, {"ods": "A83033", "name": "PELTON & FELLROSE MEDICAL GROUP", "postcode": "DH2 1HS", "lat": 54.873325, "lng": -1.60356, "pcn_name": "Chester Le Street PCN", "pcn_code": "U77096", "icb": "NHS North East and North Cumbria ICB", "patients": 10328}, {"ods": "A83034", "name": "BLACKETTS MEDICAL PRACTICE", "postcode": "DL3 7JR", "lat": 54.527232, "lng": -1.559016, "pcn_name": "Darlington PCN", "pcn_code": "U45102", "icb": "NHS North East and North Cumbria ICB", "patients": 11651}, {"ods": "A83035", "name": "THE WEARDALE PRACTICE", "postcode": "DL13 2XD", "lat": 54.746013, "lng": -2.002665, "pcn_name": "Wear Valley PCN", "pcn_code": "U96202", "icb": "NHS North East and North Cumbria ICB", "patients": 7163}, {"ods": "A83036", "name": "CHASTLETON MEDICAL GROUP", "postcode": "DH1 5BH", "lat": 54.795763, "lng": -1.587147, "pcn_name": "Durham West PCN", "pcn_code": "U01989", "icb": "NHS North East and North Cumbria ICB", "patients": 10200}, {"ods": "A83037", "name": "BEWICK CRESCENT SURGERY", "postcode": "DL5 5LH", "lat": 54.617559, "lng": -1.57187, "pcn_name": "Sedgefield 1 PCN", "pcn_code": "U37593", "icb": "NHS North East and North Cumbria ICB", "patients": 12887}, {"ods": "A83038", "name": "CEDARS MEDICAL GROUP", "postcode": "NE16 6HU", "lat": 54.905577, "lng": -1.740454, "pcn_name": "Derwentside PCN", "pcn_code": "U70497", "icb": "NHS North East and North Cumbria ICB", "patients": 6249}, {"ods": "A83040", "name": "CLIFTON COURT MEDICAL PRACTICE", "postcode": "DL1 5JN", "lat": 54.521149, "lng": -1.549565, "pcn_name": "Darlington PCN", "pcn_code": "U45102", "icb": "NHS North East and North Cumbria ICB", "patients": 12271}, {"ods": "A83041", "name": "MURTON MEDICAL CENTRE", "postcode": "SR7 9AB", "lat": 54.817006, "lng": -1.38334, "pcn_name": "North Easington PCN", "pcn_code": "U81825", "icb": "NHS North East and North Cumbria ICB", "patients": 7346}, {"ods": "A83043", "name": "OLD FORGE SURGERY", "postcode": "DL12 0QE", "lat": 54.62305, "lng": -2.079766, "pcn_name": "Teesdale PCN", "pcn_code": "U31619", "icb": "NHS North East and North Cumbria ICB", "patients": 2710}, {"ods": "A83044", "name": "THE HORDEN GROUP PRACTICE", "postcode": "SR8 4LD", "lat": 54.763742, "lng": -1.312924, "pcn_name": "Easington Central PCN", "pcn_code": "U14615", "icb": "NHS North East and North Cumbria ICB", "patients": 8365}, {"ods": "A83045", "name": "FERRYHILL AND CHILTON MEDICAL PRACTICE", "postcode": "DL17 8JJ", "lat": 54.689848, "lng": -1.556839, "pcn_name": "Sedgefield North PCN", "pcn_code": "U12365", "icb": "NHS North East and North Cumbria ICB", "patients": 14891}, {"ods": "A83046", "name": "BARNARD CASTLE SURGERY", "postcode": "DL12 8HT", "lat": 54.545717, "lng": -1.916162, "pcn_name": "", "pcn_code": "", "icb": "", "patients": 11026}, {"ods": "A83047", "name": "DENMARK STREET SURGERY", "postcode": "DL3 0PD", "lat": 54.538836, "lng": -1.552261, "pcn_name": "Darlington PCN", "pcn_code": "U45102", "icb": "NHS North East and North Cumbria ICB", "patients": 14756}, {"ods": "A83048", "name": "ROCKLIFFE COURT SURGERY", "postcode": "DL2 2DS", "lat": 54.483455, "lng": -1.544084, "pcn_name": "DARLINGTON PCN", "pcn_code": "U45102", "icb": "NHS North East and North Cumbria ICB", "patients": 6306}, {"ods": "A83049", "name": "QUEENS ROAD SURGERY", "postcode": "DH8 0BW", "lat": 54.866986, "lng": -1.843798, "pcn_name": "Derwentside PCN", "pcn_code": "U70497", "icb": "NHS North East and North Cumbria ICB", "patients": 16723}, {"ods": "A83050", "name": "CESTRIA HEALTH CENTRE", "postcode": "DH2 3DJ", "lat": 54.85173, "lng": -1.597698, "pcn_name": "Chester Le Street PCN", "pcn_code": "U77096", "icb": "NHS North East and North Cumbria ICB", "patients": 12561}, {"ods": "A83051", "name": "MARLBOROUGH SURGERY", "postcode": "SR7 7JE", "lat": 54.835804, "lng": -1.33549, "pcn_name": "North Easington PCN", "pcn_code": "U81825", "icb": "NHS North East and North Cumbria ICB", "patients": 11527}, {"ods": "A83052", "name": "BISHOPS CLOSE MEDICAL PRACTICE", "postcode": "DL16 6ED", "lat": 54.699827, "lng": -1.599152, "pcn_name": "Sedgefield North PCN", "pcn_code": "U12365", "icb": "NHS North East and North Cumbria ICB", "patients": 8558}, {"ods": "A83054", "name": "SKERNE MEDICAL GROUP", "postcode": "TS21 3BN", "lat": 54.654043, "lng": -1.448812, "pcn_name": "Sedgefield North PCN", "pcn_code": "U12365", "icb": "NHS North East and North Cumbria ICB", "patients": 17110}, {"ods": "A83055", "name": "CHEVELEY PARK MEDICAL CTR", "postcode": "DH1 2UW", "lat": 54.785609, "lng": -1.52583, "pcn_name": "Durham East PCN", "pcn_code": "U53962", "icb": "NHS North East and North Cumbria ICB", "patients": 5106}, {"ods": "A83057", "name": "EAST DURHAM MEDICAL GROUP", "postcode": "TS28 5PZ", "lat": 54.725581, "lng": -1.378952, "pcn_name": "Durham Coast PCN", "pcn_code": "U26864", "icb": "NHS North East and North Cumbria ICB", "patients": 18123}, {"ods": "A83060", "name": "PINFOLD MEDICAL PRACTICE", "postcode": "DL13 5NX", "lat": 54.626551, "lng": -1.836075, "pcn_name": "Teesdale PCN", "pcn_code": "U31619", "icb": "NHS North East and North Cumbria ICB", "patients": 2858}, {"ods": "A83061", "name": "GAINFORD SURGERY", "postcode": "DL2 3BE", "lat": 54.546257, "lng": -1.731126, "pcn_name": "Teesdale PCN", "pcn_code": "U31619", "icb": "NHS North East and North Cumbria ICB", "patients": 3726}, {"ods": "A83066", "name": "JUBILEE MEDICAL GROUP", "postcode": "DL5 4SE", "lat": 54.629666, "lng": -1.580232, "pcn_name": "Sedgefield 1 PCN", "pcn_code": "U37593", "icb": "NHS North East and North Cumbria ICB", "patients": 13102}, {"ods": "A83070", "name": "MIDDLETON AND DINSDALE MEDICAL PRACTICE", "postcode": "DL2 1BY", "lat": 54.514806, "lng": -1.447921, "pcn_name": "DARLINGTON PCN", "pcn_code": "", "icb": "", "patients": 5920}, {"ods": "A83071", "name": "THE NEW SEAHAM MEDICAL GROUP", "postcode": "SR7 8DY", "lat": 54.834804, "lng": -1.365336, "pcn_name": "North Easington PCN", "pcn_code": "U81825", "icb": "NHS North East and North Cumbria ICB", "patients": 4666}, {"ods": "A83072", "name": "LANCHESTER MEDICAL CENTRE", "postcode": "DH7 0LP", "lat": 54.819817, "lng": -1.738684, "pcn_name": "Derwentside PCN", "pcn_code": "U70497", "icb": "NHS North East and North Cumbria ICB", "patients": 4041}, {"ods": "A83073", "name": "DRS LAMBERT & NG", "postcode": "DH9 7XT", "lat": 54.857656, "lng": -1.737599, "pcn_name": "Derwentside PCN", "pcn_code": "U70497", "icb": "NHS North East and North Cumbria ICB", "patients": 5283}, {"ods": "A83074", "name": "PEASE WAY MEDICAL CENTRE", "postcode": "DL5 5NH", "lat": 54.618591, "lng": -1.576505, "pcn_name": "Sedgefield 1 PCN", "pcn_code": "U37593", "icb": "NHS North East and North Cumbria ICB", "patients": 11844}, {"ods": "A83075", "name": "BYRON MEDICAL PRACTICE", "postcode": "SR7 8LF", "lat": 54.836856, "lng": -1.348925, "pcn_name": "North Easington PCN", "pcn_code": "U81825", "icb": "NHS North East and North Cumbria ICB", "patients": 8298}, {"ods": "A83610", "name": "WINGATE MEDICAL PRACTICE INTRAHEALTH", "postcode": "TS28 5PZ", "lat": 54.725581, "lng": -1.378952, "pcn_name": "Durham Coast PCN", "pcn_code": "U26864", "icb": "NHS North East and North Cumbria ICB", "patients": 3575}, {"ods": "A83616", "name": "BEVAN MEDICAL GROUP", "postcode": "DH6 2LQ", "lat": 54.760846, "lng": -1.388109, "pcn_name": "Durham Coast PCN", "pcn_code": "U26864", "icb": "NHS North East and North Cumbria ICB", "patients": 8805}, {"ods": "A83617", "name": "BROWNEY HOUSE SURGERY", "postcode": "DH7 9YT", "lat": 54.800313, "lng": -1.670679, "pcn_name": "Derwentside PCN", "pcn_code": "U70497", "icb": "NHS North East and North Cumbria ICB", "patients": 2709}, {"ods": "A83618", "name": "OAKFIELDS HEALTH GROUP", "postcode": "NE17 7SB", "lat": 54.903631, "lng": -1.816537, "pcn_name": "Derwentside PCN", "pcn_code": "U70497", "icb": "NHS North East and North Cumbria ICB", "patients": 7614}, {"ods": "A83619", "name": "SOUTHDENE MEDICAL CENTRE", "postcode": "DH6 2LT", "lat": 54.763245, "lng": -1.386161, "pcn_name": "Durham Coast PCN", "pcn_code": "U26864", "icb": "NHS North East and North Cumbria ICB", "patients": 3410}, {"ods": "A83622", "name": "THE HAVEN SURGERY", "postcode": "DH7 0BD", "lat": 54.825113, "lng": -1.712284, "pcn_name": "Derwentside PCN", "pcn_code": "U70497", "icb": "NHS North East and North Cumbria ICB", "patients": 1772}, {"ods": "A83626", "name": "EVENWOOD MEDICAL PRACTICE", "postcode": "DL14 9SU", "lat": 54.620141, "lng": -1.758638, "pcn_name": "Teesdale PCN", "pcn_code": "U31619", "icb": "NHS North East and North Cumbria ICB", "patients": 2321}, {"ods": "A83627", "name": "SILVERDALE FAMILY PRACTICE", "postcode": "DH6 2TH", "lat": 54.800253, "lng": -1.4101, "pcn_name": "North Easington PCN", "pcn_code": "U81825", "icb": "NHS North East and North Cumbria ICB", "patients": 6591}, {"ods": "A83634", "name": "WEST CORNFORTH MEDICAL CENTRE", "postcode": "DL17 9LH", "lat": 54.703235, "lng": -1.522756, "pcn_name": "Sedgefield North PCN", "pcn_code": "U12365", "icb": "NHS North East and North Cumbria ICB", "patients": 2817}, {"ods": "A83635", "name": "BOWBURN MEDICAL CENTRE", "postcode": "DH6 5AL", "lat": 54.736269, "lng": -1.527275, "pcn_name": "Durham East PCN", "pcn_code": "U53962", "icb": "NHS North East and North Cumbria ICB", "patients": 4603}, {"ods": "A83636", "name": "LEADGATE SURGERY", "postcode": "DH8 6DP", "lat": 54.86057, "lng": -1.805999, "pcn_name": "Derwentside PCN", "pcn_code": "U70497", "icb": "NHS North East and North Cumbria ICB", "patients": 5736}, {"ods": "A83637", "name": "VILLAGES MEDICAL GROUP", "postcode": "DH2 2NJ", "lat": 54.857871, "lng": -1.609802, "pcn_name": "Chester Le Street PCN", "pcn_code": "U77096", "icb": "NHS North East and North Cumbria ICB", "patients": 4090}, {"ods": "A83641", "name": "PARKGATE SURGERY", "postcode": "DL1 5LW", "lat": 54.523284, "lng": -1.548615, "pcn_name": "Darlington PCN", "pcn_code": "U45102", "icb": "NHS North East and North Cumbria ICB", "patients": 4826}, {"ods": "A83642", "name": "RECOVERY CENTRE DURHAM", "postcode": "DH1 3BQ", "lat": 54.772443, "lng": -1.566429, "pcn_name": "", "pcn_code": "", "icb": "", "patients": 0}, {"ods": "A83644", "name": "ANNFIELD PLAIN SURGERY", "postcode": "DH9 7TD", "lat": 54.856771, "lng": -1.735502, "pcn_name": "Derwentside PCN", "pcn_code": "U70497", "icb": "NHS North East and North Cumbria ICB", "patients": 3587}, {"ods": "A84002", "name": "THE ROTHBURY PRACTICE", "postcode": "NE65 7RW", "lat": 55.306774, "lng": -1.913926, "pcn_name": "Northumbria PCN", "pcn_code": "U09980", "icb": "NHS North East and North Cumbria ICB", "patients": 6303}, {"ods": "A84005", "name": "BEDLINGTONSHIRE MED.GROUP", "postcode": "NE22 6JX", "lat": 55.1322, "lng": -1.598682, "pcn_name": "Wansbeck PCN", "pcn_code": "U11112", "icb": "NHS North East and North Cumbria ICB", "patients": 12927}, {"ods": "A84006", "name": "ALNWICK MEDICAL GROUP", "postcode": "NE66 2NL", "lat": 55.410086, "lng": -1.696747, "pcn_name": "Well Up North PCN", "pcn_code": "U25545", "icb": "NHS North East and North Cumbria ICB", "patients": 18899}, {"ods": "A84007", "name": "PONTELAND MEDICAL GROUP", "postcode": "NE20 9SD", "lat": 55.051757, "lng": -1.750046, "pcn_name": "Northumbria PCN", "pcn_code": "U09980", "icb": "NHS North East and North Cumbria ICB", "patients": 10939}, {"ods": "A84008", "name": "BELFORD MEDICAL PRACTICE", "postcode": "NE70 7ER", "lat": 55.595956, "lng": -1.826117, "pcn_name": "Well Up North PCN", "pcn_code": "U25545", "icb": "NHS North East and North Cumbria ICB", "patients": 4512}, {"ods": "A84009", "name": "RAILWAY MEDICAL GROUP", "postcode": "NE24 1HD", "lat": 55.128819, "lng": -1.514248, "pcn_name": "Blyth PCN", "pcn_code": "U25489", "icb": "NHS North East and North Cumbria ICB", "patients": 26848}, {"ods": "A84011", "name": "WHITE MEDICAL GROUP", "postcode": "NE20 9SD", "lat": 55.051757, "lng": -1.750046, "pcn_name": "West Northumberland PCN", "pcn_code": "U05512", "icb": "NHS North East and North Cumbria ICB", "patients": 8717}, {"ods": "A84013", "name": "THE GABLES MEDICAL GROUP", "postcode": "NE22 7DU", "lat": 55.140816, "lng": -1.564444, "pcn_name": "Wansbeck PCN", "pcn_code": "U11112", "icb": "NHS North East and North Cumbria ICB", "patients": 6301}, {"ods": "A84014", "name": "MARINE MEDICAL GROUP", "postcode": "NE24 1DX", "lat": 55.127879, "lng": -1.51495, "pcn_name": "Blyth PCN", "pcn_code": "U25489", "icb": "NHS North East and North Cumbria ICB", "patients": 14145}, {"ods": "A84016", "name": "PRUDHOE MEDICAL GROUP", "postcode": "NE42 5PW", "lat": 54.961947, "lng": -1.853348, "pcn_name": "West Northumberland PCN", "pcn_code": "U05512", "icb": "NHS North East and North Cumbria ICB", "patients": 6779}, {"ods": "A84018", "name": "CORBRIDGE HEALTH CENTRE", "postcode": "NE45 5LG", "lat": 54.973869, "lng": -2.012711, "pcn_name": "West Northumberland PCN", "pcn_code": "U05512", "icb": "NHS North East and North Cumbria ICB", "patients": 7350}, {"ods": "A84020", "name": "GUIDEPOST MEDICAL GROUP", "postcode": "NE62 5RA", "lat": 55.157585, "lng": -1.604124, "pcn_name": "WANSBECK PCN", "pcn_code": "", "icb": "NHS North East and North Cumbria ICB", "patients": 8123}, {"ods": "A84022", "name": "COQUET MEDICAL GROUP", "postcode": "NE65 0HD", "lat": 55.332602, "lng": -1.580519, "pcn_name": "Northumbria PCN", "pcn_code": "U09980", "icb": "NHS North East and North Cumbria ICB", "patients": 12385}, {"ods": "A84024", "name": "BURN BRAE MEDICAL GROUP", "postcode": "NE46 1QJ", "lat": 54.970445, "lng": -2.094672, "pcn_name": "West Northumberland PCN", "pcn_code": "U05512", "icb": "NHS North East and North Cumbria ICB", "patients": 10405}, {"ods": "A84025", "name": "CRAMLINGTON MEDICAL GROUP", "postcode": "NE23 6QN", "lat": 55.084488, "lng": -1.59153, "pcn_name": "Northumbria PCN", "pcn_code": "U09980", "icb": "NHS North East and North Cumbria ICB", "patients": 5541}, {"ods": "A84026", "name": "WELL CLOSE MEDICAL GROUP", "postcode": "TD15 1LL", "lat": 55.772455, "lng": -2.006137, "pcn_name": "Well Up North PCN", "pcn_code": "U25545", "icb": "NHS North East and North Cumbria ICB", "patients": 9201}, {"ods": "A84027", "name": "BELLINGHAM PRACTICE", "postcode": "NE48 2HE", "lat": 55.143844, "lng": -2.258007, "pcn_name": "West Northumberland PCN", "pcn_code": "U05512", "icb": "NHS North East and North Cumbria ICB", "patients": 3434}, {"ods": "A84028", "name": "SEATON PARK MEDICAL GROUP", "postcode": "NE63 0NG", "lat": 55.170898, "lng": -1.561024, "pcn_name": "Wansbeck PCN", "pcn_code": "U11112", "icb": "NHS North East and North Cumbria ICB", "patients": 20075}, {"ods": "A84029", "name": "NORTHUMBERLAND HEALTH", "postcode": "NE61 5LX", "lat": 55.240252, "lng": -1.620524, "pcn_name": "Northumbria PCN", "pcn_code": "U09980", "icb": "NHS North East and North Cumbria ICB", "patients": 4772}, {"ods": "A84030", "name": "VILLAGE MEDICAL GROUP", "postcode": "NE23 6US", "lat": 55.084733, "lng": -1.587095, "pcn_name": "Cramlington Seaton Valley PCN", "pcn_code": "U24977", "icb": "NHS North East and North Cumbria ICB", "patients": 11955}, {"ods": "A84031", "name": "GREYSTOKE SURGERY", "postcode": "NE61 1JX", "lat": 55.171698, "lng": -1.683437, "pcn_name": "Well Up North PCN", "pcn_code": "U25545", "icb": "NHS North East and North Cumbria ICB", "patients": 11182}, {"ods": "A84033", "name": "THE SELE MEDICAL PRACTICE", "postcode": "NE46 1QJ", "lat": 54.970445, "lng": -2.094672, "pcn_name": "West Northumberland PCN", "pcn_code": "U05512", "icb": "NHS North East and North Cumbria ICB", "patients": 5912}, {"ods": "A84034", "name": "HALTWHISTLE MEDICAL GROUP", "postcode": "NE49 9AP", "lat": 54.970077, "lng": -2.464848, "pcn_name": "West Northumberland PCN", "pcn_code": "U05512", "icb": "NHS North East and North Cumbria ICB", "patients": 5614}, {"ods": "A84035", "name": "RIVERSDALE SURGERY", "postcode": "NE42 5DQ", "lat": 54.961372, "lng": -1.84562, "pcn_name": "Unaligned", "pcn_code": "Unaligned", "icb": "NHS North East and North Cumbria ICB", "patients": 5952}, {"ods": "A84036", "name": "VALENS MEDICAL PARTNERSHIP", "postcode": "NE61 1BJ", "lat": 55.169477, "lng": -1.689719, "pcn_name": "Northumbria PCN", "pcn_code": "U09980", "icb": "NHS North East and North Cumbria ICB", "patients": 49171}, {"ods": "A84037", "name": "NETHERFIELD HOUSE", "postcode": "NE23 7EF", "lat": 55.063989, "lng": -1.547851, "pcn_name": "Cramlington Seaton Valley PCN", "pcn_code": "U24977", "icb": "NHS North East and North Cumbria ICB", "patients": 5995}, {"ods": "A84038", "name": "FORUM FAMILY PRACTICE", "postcode": "NE23 6QN", "lat": 55.084488, "lng": -1.59153, "pcn_name": "Cramlington Seaton Valley PCN", "pcn_code": "U24977", "icb": "NHS North East and North Cumbria ICB", "patients": 9363}, {"ods": "A84039", "name": "GAS HOUSE LANE SURGERY", "postcode": "NE61 1JX", "lat": 55.171698, "lng": -1.683437, "pcn_name": "WELL UP NORTH PCN", "pcn_code": "", "icb": "", "patients": 7282}, {"ods": "A84040", "name": "HUMSHAUGH & WARK MED GRP", "postcode": "NE46 4BU", "lat": 55.036042, "lng": -2.125352, "pcn_name": "West Northumberland PCN", "pcn_code": "U05512", "icb": "NHS North East and North Cumbria ICB", "patients": 3312}, {"ods": "A84042", "name": "SCOTS GAP MEDICAL GROUP", "postcode": "NE61 4EG", "lat": 55.17275, "lng": -1.940573, "pcn_name": "West Northumberland PCN", "pcn_code": "U05512", "icb": "NHS North East and North Cumbria ICB", "patients": 2194}, {"ods": "A84044", "name": "UNION BRAE & NORHAM PRAC", "postcode": "TD15 2HB", "lat": 55.766686, "lng": -2.011954, "pcn_name": "Well Up North PCN", "pcn_code": "U25545", "icb": "NHS North East and North Cumbria ICB", "patients": 7065}, {"ods": "A84045", "name": "HAYDON BRIDGE & ALLENDALE MEDICAL PRACT", "postcode": "NE47 6LA", "lat": 54.975687, "lng": -2.250068, "pcn_name": "Northumbria PCN", "pcn_code": "U09980", "icb": "NHS North East and North Cumbria ICB", "patients": 5242}, {"ods": "A84047", "name": "BRANCH END SURGERY", "postcode": "NE43 7LL", "lat": 54.947139, "lng": -1.897801, "pcn_name": "West Northumberland PCN", "pcn_code": "U05512", "icb": "NHS North East and North Cumbria ICB", "patients": 5419}, {"ods": "A84604", "name": "WOOLER HEALTH", "postcode": "NE71 6BL", "lat": 55.546533, "lng": -2.018128, "pcn_name": "Well Up North PCN", "pcn_code": "U25545", "icb": "NHS North East and North Cumbria ICB", "patients": 4936}, {"ods": "A84614", "name": "THE ADDERLANE SURGERY", "postcode": "NE42 5HR", "lat": 54.962612, "lng": -1.845756, "pcn_name": "Unaligned", "pcn_code": "", "icb": "", "patients": 2213}, {"ods": "A84619", "name": "ELSDON AVENUE SURGERY", "postcode": "NE25 0BW", "lat": 55.070627, "lng": -1.5259, "pcn_name": "Northumbria PCN", "pcn_code": "U09980", "icb": "NHS North East and North Cumbria ICB", "patients": 4374}, {"ods": "A85001", "name": "FELL TOWER MEDICAL CENTRE", "postcode": "NE9 5EY", "lat": 54.935046, "lng": -1.599068, "pcn_name": "Gateshead Central South PCN", "pcn_code": "U91254", "icb": "NHS North East and North Cumbria ICB", "patients": 7364}, {"ods": "A85002", "name": "BENSHAM FAMILY PRACTICE", "postcode": "NE8 2XB", "lat": 54.952789, "lng": -1.61705, "pcn_name": "Gateshead Central South PCN", "pcn_code": "U91254", "icb": "NHS North East and North Cumbria ICB", "patients": 3696}, {"ods": "A85004", "name": "LONGRIGG MEDICAL CENTRE", "postcode": "NE10 8PH", "lat": 54.943764, "lng": -1.54589, "pcn_name": "GATESHEAD EAST PCN", "pcn_code": "", "icb": "", "patients": 9911}, {"ods": "A85005", "name": "OXFORD TCE & RAWLING RD MEDICAL GROUP", "postcode": "NE8 1RQ", "lat": 54.954309, "lng": -1.606293, "pcn_name": "Birtley And Central Gateshead PCN", "pcn_code": "U76028", "icb": "NHS North East and North Cumbria ICB", "patients": 17980}, {"ods": "A85006", "name": "GLENPARK & TEAMS MEDICAL SERVICES", "postcode": "NE11 9FJ", "lat": 54.952972, "lng": -1.639079, "pcn_name": "Gateshead Inner West PCN", "pcn_code": "U33691", "icb": "NHS North East and North Cumbria ICB", "patients": 14556}, {"ods": "A85007", "name": "FELL COTTAGE SURGERY", "postcode": "NE9 5XY", "lat": 54.938418, "lng": -1.594211, "pcn_name": "Gateshead Central South PCN", "pcn_code": "U91254", "icb": "NHS North East and North Cumbria ICB", "patients": 8828}, {"ods": "A85008", "name": "BIRTLEY MEDICAL GROUP", "postcode": "DH3 2QT", "lat": 54.891889, "lng": -1.576453, "pcn_name": "Birtley And Central Gateshead PCN", "pcn_code": "U76028", "icb": "NHS North East and North Cumbria ICB", "patients": 15244}, {"ods": "A85009", "name": "CROWHALL MEDICAL CENTRE", "postcode": "NE10 9QG", "lat": 54.947997, "lng": -1.568137, "pcn_name": "Gateshead East PCN", "pcn_code": "U13720", "icb": "NHS North East and North Cumbria ICB", "patients": 6506}, {"ods": "A85010", "name": "CHAINBRIDGE MEDICAL PARTNERSHIP", "postcode": "NE21 5AE", "lat": 54.964222, "lng": -1.71273, "pcn_name": "Gateshead Inner West PCN", "pcn_code": "U33691", "icb": "NHS North East and North Cumbria ICB", "patients": 11529}, {"ods": "A85011", "name": "ST. ALBANS MEDICAL GROUP", "postcode": "NE10 9QG", "lat": 54.947997, "lng": -1.568137, "pcn_name": "Gateshead East PCN", "pcn_code": "U13720", "icb": "NHS North East and North Cumbria ICB", "patients": 7058}, {"ods": "A85013", "name": "MILLENNIUM FAMILY PRACTICE", "postcode": "NE8 1AD", "lat": 54.963062, "lng": -1.603724, "pcn_name": "Gateshead Central South PCN", "pcn_code": "U91254", "icb": "NHS North East and North Cumbria ICB", "patients": 3717}, {"ods": "A85014", "name": "CRAWCROOK MEDICAL CENTRE", "postcode": "NE40 4US", "lat": 54.965705, "lng": -1.787502, "pcn_name": "Gateshead Outer West PCN", "pcn_code": "U41930", "icb": "NHS North East and North Cumbria ICB", "patients": 19989}, {"ods": "A85016", "name": "WREKENTON MEDICAL GROUP", "postcode": "NE9 7AD", "lat": 54.925579, "lng": -1.571387, "pcn_name": "Gateshead Central South PCN", "pcn_code": "U91254", "icb": "NHS North East and North Cumbria ICB", "patients": 12311}, {"ods": "A85017", "name": "BEWICK ROAD SURGERY", "postcode": "NE8 4DP", "lat": 54.956406, "lng": -1.601666, "pcn_name": "Gateshead Central South PCN", "pcn_code": "U91254", "icb": "NHS North East and North Cumbria ICB", "patients": 8674}, {"ods": "A85018", "name": "OLDWELL SURGERY", "postcode": "NE21 4RD", "lat": 54.95518, "lng": -1.723614, "pcn_name": "Gateshead Outer West PCN", "pcn_code": "U41930", "icb": "NHS North East and North Cumbria ICB", "patients": 4736}, {"ods": "A85019", "name": "CENTRAL GATESHEAD MEDICAL GROUP", "postcode": "NE8 1NB", "lat": 54.956486, "lng": -1.60432, "pcn_name": "Gateshead Central South PCN", "pcn_code": "U91254", "icb": "NHS North East and North Cumbria ICB", "patients": 10457}, {"ods": "A85020", "name": "WHICKHAM COTTAGE MEDICAL CENTRE", "postcode": "NE16 4PD", "lat": 54.945387, "lng": -1.677238, "pcn_name": "Gateshead Inner West PCN", "pcn_code": "U33691", "icb": "NHS North East and North Cumbria ICB", "patients": 15626}, {"ods": "A85021", "name": "SECOND STREET SURGERY", "postcode": "NE8 2UR", "lat": 54.954651, "lng": -1.614924, "pcn_name": "Birtley And Central Gateshead PCN", "pcn_code": "U76028", "icb": "NHS North East and North Cumbria ICB", "patients": 4260}, {"ods": "A85023", "name": "TEAMS MEDICAL PRACTICE", "postcode": "NE8 2PQ", "lat": 54.955041, "lng": -1.624851, "pcn_name": "Gateshead Inner West PCN", "pcn_code": "U33691", "icb": "NHS North East and North Cumbria ICB", "patients": 0}, {"ods": "A85024", "name": "CHOPWELL PRIMARY HEALTHCARE CENTRE", "postcode": "NE17 7BU", "lat": 54.919792, "lng": -1.813484, "pcn_name": "Gateshead Outer West PCN", "pcn_code": "U41930", "icb": "NHS North East and North Cumbria ICB", "patients": 2560}, {"ods": "A85026", "name": "BEACON VIEW MEDICAL CENTRE", "postcode": "NE9 6YS", "lat": 54.933073, "lng": -1.584214, "pcn_name": "Gateshead Central South PCN", "pcn_code": "U91254", "icb": "NHS North East and North Cumbria ICB", "patients": 5824}, {"ods": "A85611", "name": "PELAW MEDICAL PRACTICE", "postcode": "NE10 0RR", "lat": 54.954725, "lng": -1.54038, "pcn_name": "Gateshead East PCN", "pcn_code": "U13720", "icb": "NHS North East and North Cumbria ICB", "patients": 5720}, {"ods": "A85614", "name": "THE BRIDGES MEDICAL PRACTICE", "postcode": "NE8 1AD", "lat": 54.963062, "lng": -1.603724, "pcn_name": "Gateshead Central South PCN", "pcn_code": "U91254", "icb": "NHS North East and North Cumbria ICB", "patients": 8381}, {"ods": "A85616", "name": "HOLLYHURST MEDICAL CENTRE", "postcode": "NE21 4RD", "lat": 54.95518, "lng": -1.723614, "pcn_name": "Gateshead Outer West PCN", "pcn_code": "U41930", "icb": "NHS North East and North Cumbria ICB", "patients": 5101}, {"ods": "A85617", "name": "SUNNISIDE SURGERY", "postcode": "NE16 5LP", "lat": 54.922943, "lng": -1.675093, "pcn_name": "Gateshead Inner West PCN", "pcn_code": "U33691", "icb": "NHS North East and North Cumbria ICB", "patients": 3949}, {"ods": "A85621", "name": "GATDOC OOH", "postcode": "NE9 6SX", "lat": 54.939388, "lng": -1.580794, "pcn_name": "", "pcn_code": "", "icb": "", "patients": 0}, {"ods": "A86003", "name": "SAVILLE MEDICAL GROUP", "postcode": "NE1 8DQ", "lat": 54.976102, "lng": -1.609612, "pcn_name": "Newcastle Central Health PCN", "pcn_code": "U43524", "icb": "NHS North East and North Cumbria ICB", "patients": 42027}, {"ods": "A86004", "name": "PROSPECT MEDICAL CENTRE", "postcode": "NE4 8AY", "lat": 54.974192, "lng": -1.646202, "pcn_name": "Newcastle Inner West PCN", "pcn_code": "U45898", "icb": "NHS North East and North Cumbria ICB", "patients": 13988}, {"ods": "A86005", "name": "WEST FARM SURGERY", "postcode": "NE12 8LS", "lat": 55.01207, "lng": -1.584072, "pcn_name": "North Tyneside North West PCN", "pcn_code": "U95193", "icb": "NHS North East and North Cumbria ICB", "patients": 5958}, {"ods": "A86006", "name": "ROSEWORTH SURGERY", "postcode": "NE3 1NB", "lat": 55.001373, "lng": -1.618685, "pcn_name": "Jesmond - Lower Gosforth PCN", "pcn_code": "U34146", "icb": "NHS North East and North Cumbria ICB", "patients": 5728}, {"ods": "A86008", "name": "PARK MEDICAL GROUP", "postcode": "NE3 2PE", "lat": 55.013936, "lng": -1.645385, "pcn_name": "North Gosforth PCN", "pcn_code": "U70624", "icb": "NHS North East and North Cumbria ICB", "patients": 13162}, {"ods": "A86010", "name": "BIDDLESTONE HEALTH GROUP", "postcode": "NE6 5SL", "lat": 54.989193, "lng": -1.576744, "pcn_name": "Newcastle East PCN", "pcn_code": "U17849", "icb": "NHS North East and North Cumbria ICB", "patients": 10733}, {"ods": "A86011", "name": "WALKER MEDICAL GROUP", "postcode": "NE6 3BS", "lat": 54.972446, "lng": -1.545239, "pcn_name": "Newcastle East PCN", "pcn_code": "U17849", "icb": "NHS North East and North Cumbria ICB", "patients": 10747}, {"ods": "A86012", "name": "WEST ROAD MEDICAL CENTRE", "postcode": "NE4 9QB", "lat": 54.976216, "lng": -1.656276, "pcn_name": "West End Family Health PCN", "pcn_code": "U44695", "icb": "NHS North East and North Cumbria ICB", "patients": 12360}, {"ods": "A86013", "name": "DENTON PARK MEDICAL GROUP", "postcode": "NE5 2QW", "lat": 54.993115, "lng": -1.69874, "pcn_name": "Newcastle Outer West PCN", "pcn_code": "U87170", "icb": "NHS North East and North Cumbria ICB", "patients": 7521}, {"ods": "A86016", "name": "LANE END SURGERY", "postcode": "NE7 7XX", "lat": 55.008911, "lng": -1.577241, "pcn_name": "North Tyneside North West PCN", "pcn_code": "U95193", "icb": "NHS North East and North Cumbria ICB", "patients": 9389}, {"ods": "A86017", "name": "CRUDDAS PARK SURGERY", "postcode": "NE4 7JT", "lat": 54.96818, "lng": -1.630978, "pcn_name": "West End Family Health PCN", "pcn_code": "U44695", "icb": "NHS North East and North Cumbria ICB", "patients": 11808}, {"ods": "A86018", "name": "THE GROVE MEDICAL GROUP", "postcode": "NE3 1NU", "lat": 55.002183, "lng": -1.6191, "pcn_name": "Jesmond - Lower Gosforth PCN", "pcn_code": "U34146", "icb": "NHS North East and North Cumbria ICB", "patients": 13087}, {"ods": "A86020", "name": "JESMOND HEALTH PARTNERSHIP", "postcode": "NE2 3LD", "lat": 54.996392, "lng": -1.609276, "pcn_name": "Jesmond - Lower Gosforth PCN", "pcn_code": "U34146", "icb": "NHS North East and North Cumbria ICB", "patients": 27292}, {"ods": "A86021", "name": "HOLMSIDE MEDICAL GROUP", "postcode": "NE4 8QB", "lat": 54.968974, "lng": -1.659977, "pcn_name": "West End Family Health PCN", "pcn_code": "U44695", "icb": "NHS North East and North Cumbria ICB", "patients": 9993}, {"ods": "A86022", "name": "PARKWAY MEDICAL GROUP", "postcode": "NE5 1LJ", "lat": 54.996847, "lng": -1.71514, "pcn_name": "Newcastle Outer West PCN", "pcn_code": "U87170", "icb": "NHS North East and North Cumbria ICB", "patients": 8515}, {"ods": "A86023", "name": "BENFIELD PARK MEDICAL GROUP", "postcode": "NE6 4QD", "lat": 54.989373, "lng": -1.56163, "pcn_name": "Newcastle East PCN", "pcn_code": "U17849", "icb": "NHS North East and North Cumbria ICB", "patients": 10417}, {"ods": "A86024", "name": "HEATON ROAD SURGERY", "postcode": "NE6 1SA", "lat": 54.97833, "lng": -1.579858, "pcn_name": "Newcastle East PCN", "pcn_code": "U17849", "icb": "NHS North East and North Cumbria ICB", "patients": 6902}, {"ods": "A86025", "name": "WESTERHOPE MEDICAL GROUP", "postcode": "NE5 2LH", "lat": 54.997784, "lng": -1.686826, "pcn_name": "Newcastle Outer West PCN", "pcn_code": "U87170", "icb": "NHS North East and North Cumbria ICB", "patients": 13692}, {"ods": "A86026", "name": "THROCKLEY PRIMARY CARE CENTRE", "postcode": "NE15 9PA", "lat": 54.992889, "lng": -1.758867, "pcn_name": "Newcastle Outer West PCN", "pcn_code": "U87170", "icb": "NHS North East and North Cumbria ICB", "patients": 7729}, {"ods": "A86027", "name": "NEWCASTLE MEDICAL CENTRE", "postcode": "NE1 7XR", "lat": 54.975139, "lng": -1.614776, "pcn_name": "Newcastle East PCN", "pcn_code": "U17849", "icb": "NHS North East and North Cumbria ICB", "patients": 21786}, {"ods": "A86028", "name": "REGENT MEDICAL CENTRE", "postcode": "NE3 1DQ", "lat": 55.009015, "lng": -1.622819, "pcn_name": "North Gosforth PCN", "pcn_code": "U70624", "icb": "NHS North East and North Cumbria ICB", "patients": 8012}, {"ods": "A86029", "name": "THORNFIELD MEDICAL GROUP", "postcode": "NE6 1SG", "lat": 54.977507, "lng": -1.583491, "pcn_name": "Newcastle East PCN", "pcn_code": "U17849", "icb": "NHS North East and North Cumbria ICB", "patients": 20154}, {"ods": "A86030", "name": "BETTS AVENUE MEDICAL GROUP", "postcode": "NE15 6TQ", "lat": 54.973295, "lng": -1.675876, "pcn_name": "Newcastle Inner West PCN", "pcn_code": "U45898", "icb": "NHS North East and North Cumbria ICB", "patients": 10478}, {"ods": "A86031", "name": "FENHAM HALL SURGERY", "postcode": "NE4 9XD", "lat": 54.984458, "lng": -1.660239, "pcn_name": "NEWCASTLE INNER WEST PCN", "pcn_code": "", "icb": "NHS North East and North Cumbria ICB", "patients": 10866}, {"ods": "A86033", "name": "BRUNTON PARK", "postcode": "NE3 5NF", "lat": 55.026974, "lng": -1.627123, "pcn_name": "North Gosforth PCN", "pcn_code": "U70624", "icb": "NHS North East and North Cumbria ICB", "patients": 7996}, {"ods": "A86037", "name": "ELSWICK FAMILY PRACTICE", "postcode": "NE4 6SH", "lat": 54.969322, "lng": -1.640464, "pcn_name": "Newcastle Inner West PCN", "pcn_code": "U45898", "icb": "NHS North East and North Cumbria ICB", "patients": 8507}, {"ods": "A86038", "name": "NEWBURN SURGERY", "postcode": "NE15 8LX", "lat": 54.985651, "lng": -1.743628, "pcn_name": "Newcastle Outer West PCN", "pcn_code": "U87170", "icb": "NHS North East and North Cumbria ICB", "patients": 6299}, {"ods": "A86040", "name": "ST. ANTHONY'S HEALTH CENTRE", "postcode": "NE6 2NN", "lat": 54.966368, "lng": -1.556444, "pcn_name": "NEWCASTLE EAST PCN", "pcn_code": "", "icb": "NHS North East and North Cumbria ICB", "patients": 6603}, {"ods": "A86041", "name": "SWARLAND AVENUE SURGERY", "postcode": "NE7 7TD", "lat": 55.006372, "lng": -1.578644, "pcn_name": "North Tyneside North West PCN", "pcn_code": "U95193", "icb": "NHS North East and North Cumbria ICB", "patients": 6697}, {"ods": "A86601", "name": "DENTON TURRET MEDICAL CENTRE", "postcode": "NE5 2UY", "lat": 54.983935, "lng": -1.686401, "pcn_name": "Newcastle Outer West PCN", "pcn_code": "U87170", "icb": "NHS North East and North Cumbria ICB", "patients": 8989}, {"ods": "A87002", "name": "SPRING TERRACE HEALTH CENTRE", "postcode": "NE29 0HD", "lat": 55.010593, "lng": -1.451379, "pcn_name": "North Shields PCN", "pcn_code": "U91110", "icb": "NHS North East and North Cumbria ICB", "patients": 21429}, {"ods": "A87004", "name": "COLLINGWOOD HEALTH GROUP", "postcode": "NE29 0SF", "lat": 55.0112, "lng": -1.456609, "pcn_name": "", "pcn_code": "", "icb": "", "patients": 24391}, {"ods": "A87005", "name": "WHITLEY BAY HEALTH CENTRE", "postcode": "NE26 2ND", "lat": 55.041417, "lng": -1.439973, "pcn_name": "Whitley Bay PCN", "pcn_code": "U02739", "icb": "NHS North East and North Cumbria ICB", "patients": 13744}, {"ods": "A87006", "name": "49 MARINE AVENUE SURGERY", "postcode": "NE26 1NA", "lat": 55.046276, "lng": -1.451096, "pcn_name": "Whitley Bay PCN", "pcn_code": "U02739", "icb": "NHS North East and North Cumbria ICB", "patients": 0}, {"ods": "A87007", "name": "STEPHENSON PARK HEALTH GROUP", "postcode": "NE12 9BQ", "lat": 55.020362, "lng": -1.56758, "pcn_name": "North Tyneside North West PCN", "pcn_code": "U95193", "icb": "NHS North East and North Cumbria ICB", "patients": 17668}, {"ods": "A87008", "name": "MARINE AVENUE MEDICAL CTR", "postcode": "NE26 3LW", "lat": 55.044028, "lng": -1.456948, "pcn_name": "Whitley Bay PCN", "pcn_code": "U02739", "icb": "NHS North East and North Cumbria ICB", "patients": 9263}, {"ods": "A87009", "name": "PRIORY MEDICAL GROUP", "postcode": "NE29 0HT", "lat": 55.010039, "lng": -1.450136, "pcn_name": "North Shields PCN", "pcn_code": "U91110", "icb": "NHS North East and North Cumbria ICB", "patients": 15424}, {"ods": "A87011", "name": "BEAUMONT PARK SURGERY", "postcode": "NE25 9XJ", "lat": 55.04809, "lng": -1.473405, "pcn_name": "Whitley Bay PCN", "pcn_code": "U02739", "icb": "NHS North East and North Cumbria ICB", "patients": 6204}, {"ods": "A87012", "name": "WIDEOPEN MEDICAL CENTRE", "postcode": "NE13 6LN", "lat": 55.048263, "lng": -1.624531, "pcn_name": "North Tyneside North West PCN", "pcn_code": "U95193", "icb": "NHS North East and North Cumbria ICB", "patients": 7373}, {"ods": "A87013", "name": "BEWICKE MEDICAL CENTRE", "postcode": "NE28 0AD", "lat": 54.996639, "lng": -1.49976, "pcn_name": "Wallsend PCN", "pcn_code": "U10386", "icb": "NHS North East and North Cumbria ICB", "patients": 9316}, {"ods": "A87016", "name": "THE VILLAGE GREEN SURGERY", "postcode": "NE28 6BB", "lat": 54.996316, "lng": -1.529292, "pcn_name": "Wallsend PCN", "pcn_code": "U10386", "icb": "NHS North East and North Cumbria ICB", "patients": 12897}, {"ods": "A87017", "name": "WOODLANDS PARK HEALTH CTR", "postcode": "NE13 6JJ", "lat": 55.046147, "lng": -1.628839, "pcn_name": "North Tyneside North West PCN", "pcn_code": "U95193", "icb": "NHS North East and North Cumbria ICB", "patients": 6914}, {"ods": "A87019", "name": "NELSON MEDICAL GROUP", "postcode": "NE29 0DZ", "lat": 55.009064, "lng": -1.451087, "pcn_name": "North Shields PCN", "pcn_code": "U91110", "icb": "NHS North East and North Cumbria ICB", "patients": 0}, {"ods": "A87020", "name": "BRIDGE AND MONKSEATON MEDICAL PRACTICE", "postcode": "NE25 9PH", "lat": 55.036765, "lng": -1.472834, "pcn_name": "Whitley Bay PCN", "pcn_code": "U02739", "icb": "NHS North East and North Cumbria ICB", "patients": 13312}, {"ods": "A87022", "name": "NORTHUMBERLAND PARK MEDICAL GROUP", "postcode": "NE27 0HJ", "lat": 55.03768, "lng": -1.506714, "pcn_name": "North Tyneside North West PCN", "pcn_code": "U95193", "icb": "NHS North East and North Cumbria ICB", "patients": 9641}, {"ods": "A87029", "name": "HADRIAN HEALTH CENTRE", "postcode": "NE28 8QU", "lat": 54.992013, "lng": -1.536641, "pcn_name": "Wallsend PCN", "pcn_code": "U10386", "icb": "NHS North East and North Cumbria ICB", "patients": 21282}, {"ods": "A87030", "name": "REDBURN PARK MEDICAL CENTRE", "postcode": "NE29 6HT", "lat": 55.000928, "lng": -1.474788, "pcn_name": "North Shields PCN", "pcn_code": "U91110", "icb": "NHS North East and North Cumbria ICB", "patients": 6289}, {"ods": "A87600", "name": "PARK PARADE PRACTICE", "postcode": "NE26 1DU", "lat": 55.042777, "lng": -1.450455, "pcn_name": "Whitley Bay PCN", "pcn_code": "U02739", "icb": "NHS North East and North Cumbria ICB", "patients": 4861}, {"ods": "A87612", "name": "WELLSPRING MEDICAL PRACT.", "postcode": "NE12 6HS", "lat": 55.037297, "lng": -1.56408, "pcn_name": "North Tyneside North West PCN", "pcn_code": "U95193", "icb": "NHS North East and North Cumbria ICB", "patients": 6570}, {"ods": "A87615", "name": "MALLARD MEDICAL PRACTICE", "postcode": "NE12 6HS", "lat": 55.037297, "lng": -1.56408, "pcn_name": "North Tyneside North West PCN", "pcn_code": "U95193", "icb": "NHS North East and North Cumbria ICB", "patients": 5606}, {"ods": "A88001", "name": "VICTORIA MEDICAL CENTRE", "postcode": "NE31 1NU", "lat": 54.973937, "lng": -1.521601, "pcn_name": "South Tyneside West PCN", "pcn_code": "U37826", "icb": "NHS North East and North Cumbria ICB", "patients": 3672}, {"ods": "A88002", "name": "FARNHAM MEDICAL CTR.", "postcode": "NE33 4QY", "lat": 54.975584, "lng": -1.438077, "pcn_name": "South Tyneside East PCN", "pcn_code": "U20256", "icb": "NHS North East and North Cumbria ICB", "patients": 16508}, {"ods": "A88003", "name": "MARSDEN MEDICAL GROUP", "postcode": "NE34 6RE", "lat": 54.980472, "lng": -1.40015, "pcn_name": "South Tyneside South PCN", "pcn_code": "U89118", "icb": "NHS North East and North Cumbria ICB", "patients": 22619}, {"ods": "A88004", "name": "MAYFIELD MEDICAL GROUP", "postcode": "NE32 5SE", "lat": 54.977889, "lng": -1.496462, "pcn_name": "South Tyneside West PCN", "pcn_code": "U37826", "icb": "NHS North East and North Cumbria ICB", "patients": 8962}, {"ods": "A88005", "name": "WENLOCK ROAD SURGERY", "postcode": "NE34 9BP", "lat": 54.972643, "lng": -1.45524, "pcn_name": "South Tyneside East PCN", "pcn_code": "U20256", "icb": "NHS North East and North Cumbria ICB", "patients": 4460}, {"ods": "A88006", "name": "TALBOT MEDICAL CENTRE", "postcode": "NE34 0BX", "lat": 54.972932, "lng": -1.441738, "pcn_name": "South Tyneside East PCN", "pcn_code": "U20256", "icb": "NHS North East and North Cumbria ICB", "patients": 7742}, {"ods": "A88008", "name": "TRINITY MEDICAL CENTRE", "postcode": "NE33 5DU", "lat": 54.987701, "lng": -1.436798, "pcn_name": "South Tyneside East PCN", "pcn_code": "U20256", "icb": "NHS North East and North Cumbria ICB", "patients": 6306}, {"ods": "A88009", "name": "DR THORNILEY-WALKER & PARTNERS", "postcode": "NE35 9AN", "lat": 54.94977, "lng": -1.460717, "pcn_name": "South Tyneside South PCN", "pcn_code": "U89118", "icb": "NHS North East and North Cumbria ICB", "patients": 5853}, {"ods": "A88010", "name": "ALBERT ROAD SURGERY", "postcode": "NE32 5AG", "lat": 54.978075, "lng": -1.491507, "pcn_name": "South Tyneside West PCN", "pcn_code": "U37826", "icb": "NHS North East and North Cumbria ICB", "patients": 3652}, {"ods": "A88012", "name": "ELLISON VIEW SURGERY", "postcode": "NE31 1NU", "lat": 54.973937, "lng": -1.521601, "pcn_name": "South Tyneside West PCN", "pcn_code": "U37826", "icb": "NHS North East and North Cumbria ICB", "patients": 6039}, {"ods": "A88013", "name": "CENTRAL SURGERY", "postcode": "NE34 8PS", "lat": 54.971299, "lng": -1.415314, "pcn_name": "South Tyneside South PCN", "pcn_code": "U89118", "icb": "NHS North East and North Cumbria ICB", "patients": 19395}, {"ods": "A88014", "name": "WEST VIEW SURGERY", "postcode": "NE33 4JP", "lat": 54.984988, "lng": -1.431179, "pcn_name": "South Tyneside East PCN", "pcn_code": "U20256", "icb": "NHS North East and North Cumbria ICB", "patients": 2803}, {"ods": "A88015", "name": "ST GEORGE & RIVERSIDE MEDICAL PRACTICE", "postcode": "NE33 5DU", "lat": 54.987701, "lng": -1.436798, "pcn_name": "South Tyneside East PCN", "pcn_code": "U20256", "icb": "NHS North East and North Cumbria ICB", "patients": 7369}, {"ods": "A88016", "name": "COLLIERY COURT MEDICAL GROUP", "postcode": "NE35 9AN", "lat": 54.94977, "lng": -1.460717, "pcn_name": "South Tyneside South PCN", "pcn_code": "U89118", "icb": "NHS North East and North Cumbria ICB", "patients": 8381}, {"ods": "A88022", "name": "THE GLEN MEDICAL GROUP", "postcode": "NE31 1NU", "lat": 54.973937, "lng": -1.521601, "pcn_name": "South Tyneside West PCN", "pcn_code": "U37826", "icb": "NHS North East and North Cumbria ICB", "patients": 11150}, {"ods": "A88023", "name": "WHITBURN SURGERY", "postcode": "SR6 7EE", "lat": 54.952803, "lng": -1.364681, "pcn_name": "South Tyneside South PCN", "pcn_code": "U89118", "icb": "NHS North East and North Cumbria ICB", "patients": 5291}, {"ods": "A88025", "name": "THE G.P.SUITE", "postcode": "NE32 3UX", "lat": 54.980665, "lng": -1.49199, "pcn_name": "South Tyneside West PCN", "pcn_code": "U37826", "icb": "NHS North East and North Cumbria ICB", "patients": 4270}, {"ods": "A88601", "name": "IMEARY MEDICAL GROUP", "postcode": "NE33 4JP", "lat": 54.984988, "lng": -1.431179, "pcn_name": "SOUTH TYNESIDE SOUTH PCN", "pcn_code": "", "icb": "", "patients": 4489}, {"ods": "A88608", "name": "RAVENSWORTH SURGERY", "postcode": "NE33 3ET", "lat": 54.988389, "lng": -1.420598, "pcn_name": "South Tyneside West PCN", "pcn_code": "U37826", "icb": "NHS North East and North Cumbria ICB", "patients": 6012}, {"ods": "A88613", "name": "EAST WING PRACTICE", "postcode": "NE32 3UX", "lat": 54.980665, "lng": -1.49199, "pcn_name": "South Tyneside West PCN", "pcn_code": "U37826", "icb": "NHS North East and North Cumbria ICB", "patients": 4136}, {"ods": "A89001", "name": "DEERNESS PARK MEDICAL GROUP", "postcode": "SR2 8AD", "lat": 54.89995, "lng": -1.372764, "pcn_name": "Sunderland East PCN", "pcn_code": "U52297", "icb": "NHS North East and North Cumbria ICB", "patients": 13654}, {"ods": "A89002", "name": "RIVERVIEW SURGERY", "postcode": "SR1 2HJ", "lat": 54.905525, "lng": -1.373254, "pcn_name": "SUNDERLAND EAST PCN", "pcn_code": "U52297", "icb": "NHS North East and North Cumbria ICB", "patients": 6766}, {"ods": "A89004", "name": "HETTON GROUP PRACTICE", "postcode": "DH5 9EZ", "lat": 54.825356, "lng": -1.449129, "pcn_name": "Coalfields PCN", "pcn_code": "U69720", "icb": "NHS North East and North Cumbria ICB", "patients": 11914}, {"ods": "A89005", "name": "VILLETTE SURGERY", "postcode": "SR2 8AX", "lat": 54.897475, "lng": -1.368436, "pcn_name": "Sunderland East PCN", "pcn_code": "U52297", "icb": "NHS North East and North Cumbria ICB", "patients": 5854}, {"ods": "A89006", "name": "WEARSIDE MEDICAL PRACTICE - PALLION", "postcode": "SR4 7XF", "lat": 54.908604, "lng": -1.414195, "pcn_name": "Sunderland West 1 PCN", "pcn_code": "U14646", "icb": "NHS North East and North Cumbria ICB", "patients": 7936}, {"ods": "A89007", "name": "PALLION FAMILY PRACTICE", "postcode": "SR4 7XF", "lat": 54.908604, "lng": -1.414195, "pcn_name": "Sunderland West 1 PCN", "pcn_code": "U14646", "icb": "NHS North East and North Cumbria ICB", "patients": 10004}, {"ods": "A89008", "name": "RED HOUSE MEDICAL CENTRE", "postcode": "SR5 5PS", "lat": 54.925465, "lng": -1.424077, "pcn_name": "Sunderland North PCN", "pcn_code": "U43314", "icb": "NHS North East and North Cumbria ICB", "patients": 5426}, {"ods": "A89009", "name": "HERRINGTON MEDICAL CENTRE", "postcode": "DH4 4LE", "lat": 54.865694, "lng": -1.48334, "pcn_name": "COALFIELDS PCN", "pcn_code": "", "icb": "", "patients": 9893}, {"ods": "A89010", "name": "THE STEPHENSON MEDICAL PRACTICE", "postcode": "NE37 2PU", "lat": 54.913419, "lng": -1.524877, "pcn_name": "", "pcn_code": "", "icb": "", "patients": 12097}, {"ods": "A89011", "name": "VILLAGE SURGERY PARTNERSHIP", "postcode": "SR3 2AN", "lat": 54.870962, "lng": -1.40723, "pcn_name": "Sunderland West 2 PCN", "pcn_code": "U05458", "icb": "NHS North East and North Cumbria ICB", "patients": 4879}, {"ods": "A89012", "name": "GALLERIES MEDICAL PRACTICE", "postcode": "NE38 7NQ", "lat": 54.898823, "lng": -1.531254, "pcn_name": "Washington PCN", "pcn_code": "U61868", "icb": "NHS North East and North Cumbria ICB", "patients": 11699}, {"ods": "A89013", "name": "THE NEW CITY MEDICAL GROUP", "postcode": "SR1 2QB", "lat": 54.904436, "lng": -1.376609, "pcn_name": "Sunderland East PCN", "pcn_code": "U52297", "icb": "NHS North East and North Cumbria ICB", "patients": 5568}, {"ods": "A89015", "name": "FULWELL MEDICAL CENTRE,", "postcode": "SR6 8DZ", "lat": 54.930494, "lng": -1.383025, "pcn_name": "", "pcn_code": "", "icb": "", "patients": 9171}, {"ods": "A89016", "name": "ST BEDE MEDICAL CENTRE", "postcode": "SR6 0QQ", "lat": 54.913844, "lng": -1.378179, "pcn_name": "Sunderland North PCN", "pcn_code": "U43314", "icb": "NHS North East and North Cumbria ICB", "patients": 9254}, {"ods": "A89017", "name": "MILLFIELD MEDICAL GROUP", "postcode": "SR4 7AF", "lat": 54.906923, "lng": -1.395769, "pcn_name": "Sunderland West 1 PCN", "pcn_code": "U14646", "icb": "NHS North East and North Cumbria ICB", "patients": 14242}, {"ods": "A89018", "name": "ASHBURN MEDICAL CENTRE", "postcode": "SR1 2HJ", "lat": 54.905525, "lng": -1.373254, "pcn_name": "Sunderland East PCN", "pcn_code": "U52297", "icb": "NHS North East and North Cumbria ICB", "patients": 5157}, {"ods": "A89019", "name": "BRIDGE VIEW MEDICAL GROUP", "postcode": "SR5 2LT", "lat": 54.919462, "lng": -1.401838, "pcn_name": "Sunderland North PCN", "pcn_code": "U43314", "icb": "NHS North East and North Cumbria ICB", "patients": 14665}, {"ods": "A89020", "name": "FORGE MEDICAL PRACTICE", "postcode": "SR4 6QE", "lat": 54.910071, "lng": -1.412708, "pcn_name": "Sunderland West 1 PCN", "pcn_code": "U14646", "icb": "NHS North East and North Cumbria ICB", "patients": 8505}, {"ods": "A89021", "name": "KEPIER MEDICAL PRACTICE", "postcode": "DH4 5EQ", "lat": 54.845059, "lng": -1.478636, "pcn_name": "Coalfields PCN", "pcn_code": "U69720", "icb": "NHS North East and North Cumbria ICB", "patients": 8529}, {"ods": "A89022", "name": "CONCORD MEDICAL PRACTICE", "postcode": "NE37 2PU", "lat": 54.913419, "lng": -1.524877, "pcn_name": "Washington PCN", "pcn_code": "U61868", "icb": "NHS North East and North Cumbria ICB", "patients": 5227}, {"ods": "A89023", "name": "HOUGHTON MEDICAL GROUP,", "postcode": "DH4 4DN", "lat": 54.84275, "lng": -1.468326, "pcn_name": "COALFIELDS PCN", "pcn_code": "", "icb": "NHS North East and North Cumbria ICB", "patients": 8400}, {"ods": "A89024", "name": "THE BROADWAY MEDICAL PRACTICE", "postcode": "SR3 4HG", "lat": 54.890248, "lng": -1.422194, "pcn_name": "SUNDERLAND WEST 2 PCN", "pcn_code": "", "icb": "", "patients": 8019}, {"ods": "A89025", "name": "SUNDERLAND GP ALLIANCE MEDICAL PRACTICE", "postcode": "NE38 7NQ", "lat": 54.898823, "lng": -1.531254, "pcn_name": "WASHINGTON PCN", "pcn_code": "U61868", "icb": "NHS North East and North Cumbria ICB", "patients": 9840}, {"ods": "A89026", "name": "NEW WASHINGTON MEDICAL GROUP", "postcode": "NE37 2PU", "lat": 54.913419, "lng": -1.524877, "pcn_name": "Washington PCN", "pcn_code": "U61868", "icb": "NHS North East and North Cumbria ICB", "patients": 7151}, {"ods": "A89027", "name": "SPRINGWELL MEDICAL GROUP", "postcode": "SR3 4HG", "lat": 54.890248, "lng": -1.422194, "pcn_name": "Sunderland West 2 PCN", "pcn_code": "U05458", "icb": "NHS North East and North Cumbria ICB", "patients": 6344}, {"ods": "A89028", "name": "GRANGEWOOD SURGERY", "postcode": "DH4 4RB", "lat": 54.866423, "lng": -1.498724, "pcn_name": "Coalfields PCN", "pcn_code": "U69720", "icb": "NHS North East and North Cumbria ICB", "patients": 7545}, {"ods": "A89030", "name": "WESTBOURNE MEDICAL GROUP", "postcode": "DH4 4RW", "lat": 54.866877, "lng": -1.495478, "pcn_name": "Coalfields PCN", "pcn_code": "U69720", "icb": "NHS North East and North Cumbria ICB", "patients": 6596}, {"ods": "A89031", "name": "HYLTON MEDICAL GROUP", "postcode": "SR4 7XF", "lat": 54.908604, "lng": -1.414195, "pcn_name": "Sunderland West 1 PCN", "pcn_code": "U14646", "icb": "NHS North East and North Cumbria ICB", "patients": 7457}, {"ods": "A89032", "name": "NEW SILKSWORTH MEDICAL PRACTICE", "postcode": "SR3 2AN", "lat": 54.870962, "lng": -1.40723, "pcn_name": "Sunderland West 2 PCN", "pcn_code": "U05458", "icb": "NHS North East and North Cumbria ICB", "patients": 9197}, {"ods": "A89034", "name": "PARK LANE PRACTICE", "postcode": "SR2 7BA", "lat": 54.901313, "lng": -1.384391, "pcn_name": "Sunderland East PCN", "pcn_code": "U52297", "icb": "NHS North East and North Cumbria ICB", "patients": 4100}, {"ods": "A89035", "name": "SOUTHLANDS MEDICAL GROUP", "postcode": "SR2 0RY", "lat": 54.871568, "lng": -1.368857, "pcn_name": "Sunderland East PCN", "pcn_code": "U52297", "icb": "NHS North East and North Cumbria ICB", "patients": 10902}, {"ods": "A89036", "name": "CASTLETOWN MEDICAL CENTRE", "postcode": "SR5 3EX", "lat": 54.91335, "lng": -1.450862, "pcn_name": "SUNDERLAND NORTH PCN", "pcn_code": "", "icb": "", "patients": 2337}, {"ods": "A89040", "name": "MONKWEARMOUTH HEALTH CENTRE", "postcode": "SR6 0AB", "lat": 54.913143, "lng": -1.381668, "pcn_name": "Sunderland North PCN", "pcn_code": "U43314", "icb": "NHS North East and North Cumbria ICB", "patients": 4488}, {"ods": "A89041", "name": "HAPPY HOUSE SURGERY", "postcode": "SR3 4BY", "lat": 54.88502, "lng": -1.422799, "pcn_name": "Sunderland West 2 PCN", "pcn_code": "U05458", "icb": "NHS North East and North Cumbria ICB", "patients": 8091}, {"ods": "A89614", "name": "SUNDERLAND GP ALLIANCE SOUTH HYLTON SURG", "postcode": "SR4 0LS", "lat": 54.904232, "lng": -1.449629, "pcn_name": "Sunderland West 2 PCN", "pcn_code": "U05458", "icb": "NHS North East and North Cumbria ICB", "patients": 4534}, {"ods": "A89616", "name": "RICKLETON MEDICAL CENTRE", "postcode": "NE38 9EH", "lat": 54.880202, "lng": -1.547508, "pcn_name": "Washington PCN", "pcn_code": "U61868", "icb": "NHS North East and North Cumbria ICB", "patients": 2966}, {"ods": "A89617", "name": "I J HEALTHCARE", "postcode": "NE38 9AB", "lat": 54.881048, "lng": -1.531367, "pcn_name": "WASHINGTON PCN", "pcn_code": "", "icb": "", "patients": 3549}, {"ods": "A89623", "name": "CHESTER SURGERY", "postcode": "SR4 7TU", "lat": 54.901082, "lng": -1.406788, "pcn_name": "Sunderland West 1 PCN", "pcn_code": "U14646", "icb": "NHS North East and North Cumbria ICB", "patients": 3096}, {"ods": "A89632", "name": "LYMPHOEDEMA CLINIC", "postcode": "SR2 0NY", "lat": 54.862355, "lng": -1.368362, "pcn_name": "", "pcn_code": "", "icb": "", "patients": 0}, {"ods": "A89634", "name": "CONSULTANT - ST BENEDICT", "postcode": "SR2 0NY", "lat": 54.862355, "lng": -1.368362, "pcn_name": "", "pcn_code": "", "icb": "", "patients": 0}, {"ods": "A91020", "name": "LARKHILL MEDICAL CENTRE", "postcode": "SP4 8QY", "lat": 51.197443, "lng": -1.820759, "pcn_name": "", "pcn_code": "", "icb": "", "patients": 0}, {"ods": "A91021", "name": "CRANWELL MEDICAL CENTRE", "postcode": "NG34 8HB", "lat": 53.035786, "lng": -0.498077, "pcn_name": "", "pcn_code": "", "icb": "", "patients": 0}, {"ods": "A91022", "name": "BOVINGTON MEDICAL CENTRE", "postcode": "BH20 6JA", "lat": 50.699212, "lng": -2.237341, "pcn_name": "", "pcn_code": "", "icb": "", "patients": 0}, {"ods": "A91023", "name": "BULFORD MEDICAL CENTRE", "postcode": "SP4 9AD", "lat": 51.194546, "lng": -1.734961, "pcn_name": "", "pcn_code": "", "icb": "", "patients": 0}, {"ods": "A91024", "name": "CATTERICK MEDICAL CENTRE", "postcode": "DL9 3PZ", "lat": 54.372923, "lng": -1.746617, "pcn_name": "", "pcn_code": "", "icb": "", "patients": 0}, {"ods": "A91025", "name": "PIRBRIGHT MEDICAL CENTRE", "postcode": "GU24 0QQ", "lat": 51.30485, "lng": -0.668378, "pcn_name": "", "pcn_code": "", "icb": "", "patients": 0}, {"ods": "A91026", "name": "SANDHURST MEDICAL CENTRE", "postcode": "GU15 4PQ", "lat": 51.344019, "lng": -0.761633, "pcn_name": "", "pcn_code": "", "icb": "", "patients": 0}, {"ods": "A91027", "name": "TIDWORTH MEDICAL CENTRE", "postcode": "SP9 7EA", "lat": 51.233938, "lng": -1.670096, "pcn_name": "", "pcn_code": "", "icb": "", "patients": 0}, {"ods": "A91028", "name": "WARMINSTER MEDICAL CENTRE", "postcode": "BA12 0DJ", "lat": 51.212397, "lng": -2.159298, "pcn_name": "", "pcn_code": "", "icb": "", "patients": 0}, {"ods": "A91029", "name": "BENSON MEDICAL CENTRE", "postcode": "OX10 6AA", "lat": 51.613011, "lng": -1.088004, "pcn_name": "", "pcn_code": "", "icb": "", "patients": 0}, {"ods": "A91030", "name": "BRIZE NORTON MEDICAL CENTRE", "postcode": "OX18 3LX", "lat": 51.762313, "lng": -1.581655, "pcn_name": "", "pcn_code": "", "icb": "", "patients": 0}, {"ods": "A91031", "name": "CONINGSBY MEDICAL CENTRE", "postcode": "LN4 4SY", "lat": 53.099028, "lng": -0.170234, "pcn_name": "", "pcn_code": "", "icb": "", "patients": 0}, {"ods": "A91032", "name": "COSFORD MEDICAL CENTRE", "postcode": "WV7 3EX", "lat": 52.649674, "lng": -2.303896, "pcn_name": "", "pcn_code": "", "icb": "", "patients": 0}, {"ods": "A91033", "name": "LYNEHAM MEDICAL CENTRE", "postcode": "SN15 4XX", "lat": 51.508901, "lng": -1.97908, "pcn_name": "", "pcn_code": "", "icb": "", "patients": 0}, {"ods": "A91035", "name": "LINTON-ON-OUSE MEDICAL CENTRE", "postcode": "YO30 2AJ", "lat": 54.044525, "lng": -1.242468, "pcn_name": "", "pcn_code": "", "icb": "", "patients": 0}, {"ods": "A91036", "name": "HALTON MEDICAL CENTRE", "postcode": "HP22 5PG", "lat": 51.774861, "lng": -0.727866, "pcn_name": "", "pcn_code": "", "icb": "", "patients": 0}, {"ods": "A91037", "name": "LEEMING MEDICAL CENTRE", "postcode": "DL7 9NJ", "lat": 54.291469, "lng": -1.515587, "pcn_name": "", "pcn_code": "", "icb": "", "patients": 0}, {"ods": "A91038", "name": "MARHAM MEDICAL CENTRE", "postcode": "PE33 9NP", "lat": 52.657009, "lng": 0.546991, "pcn_name": "", "pcn_code": "", "icb": "", "patients": 0}, {"ods": "A91039", "name": "NORTHOLT MEDICAL CENTRE", "postcode": "HA4 6NG", "lat": 51.558047, "lng": -0.409398, "pcn_name": "", "pcn_code": "", "icb": "", "patients": 0}, {"ods": "A91040", "name": "SHAWBURY MEDICAL CENTRE", "postcode": "SY4 4DZ", "lat": 52.792705, "lng": -2.657467, "pcn_name": "", "pcn_code": "", "icb": "", "patients": 0}, {"ods": "A91041", "name": "WITTERING MEDICAL CENTRE", "postcode": "PE8 6HB", "lat": 52.614111, "lng": -0.447152, "pcn_name": "", "pcn_code": "", "icb": "", "patients": 0}, {"ods": "A91042", "name": "NORTHWOOD MEDICAL CENTRE", "postcode": "HA6 3HP", "lat": 51.619042, "lng": -0.409288, "pcn_name": "", "pcn_code": "", "icb": "", "patients": 0}, {"ods": "A91044", "name": "CHICKSANDS MEDICAL CENTRE", "postcode": "SG17 5PR", "lat": 52.044833, "lng": -0.363124, "pcn_name": "", "pcn_code": "", "icb": "", "patients": 0}, {"ods": "A91045", "name": "COMBERMERE MEDICAL CENTRE", "postcode": "SL4 3DN", "lat": 51.472826, "lng": -0.616296, "pcn_name": "", "pcn_code": "", "icb": "", "patients": 0}, {"ods": "A91048", "name": "MEDICAL CENTRE", "postcode": "BH15 4NQ", "lat": 50.720359, "lng": -2.025526, "pcn_name": "", "pcn_code": "", "icb": "", "patients": 0}, {"ods": "A91049", "name": "WALTERS ASH MEDICAL CENTRE", "postcode": "HP14 4UE", "lat": 51.681088, "lng": -0.802705, "pcn_name": "", "pcn_code": "", "icb": "", "patients": 0}, {"ods": "A91051", "name": "WATERBEACH", "postcode": "CB25 9PB", "lat": 52.271946, "lng": 0.185334, "pcn_name": "", "pcn_code": "", "icb": "", "patients": 0}, {"ods": "A91052", "name": "WYTON MEDICAL CENTRE", "postcode": "PE28 2EA", "lat": 52.348759, "lng": -0.11896, "pcn_name": "", "pcn_code": "", "icb": "", "patients": 0}, {"ods": "A91054", "name": "VICTORIA MEDICAL CENTRE", "postcode": "SL4 1HS", "lat": 51.477531, "lng": -0.611863, "pcn_name": "", "pcn_code": "", "icb": "", "patients": 0}, {"ods": "A91056", "name": "RALEIGH MEDICAL CENTRE", "postcode": "PL11 2PD", "lat": 50.373616, "lng": -4.224973, "pcn_name": "", "pcn_code": "", "icb": "", "patients": 0}, {"ods": "A91057", "name": "SEAHAWK MEDICAL CENTRE", "postcode": "TR12 7RH", "lat": 50.083719, "lng": -5.256106, "pcn_name": "", "pcn_code": "", "icb": "", "patients": 0}, {"ods": "A91058", "name": "ST MAWGAN MEDICAL CENTRE", "postcode": "TR8 4HP", "lat": 50.438722, "lng": -5.002833, "pcn_name": "", "pcn_code": "", "icb": "", "patients": 0}, {"ods": "A91060", "name": "CHIVENOR MEDICAL CENTRE", "postcode": "EX31 4AZ", "lat": 51.093044, "lng": -4.141367, "pcn_name": "", "pcn_code": "", "icb": "", "patients": 0}, {"ods": "A91061", "name": "LYMPSTONE MEDICAL CENTRE", "postcode": "EX8 5AR", "lat": 50.664186, "lng": -3.434942, "pcn_name": "", "pcn_code": "", "icb": "", "patients": 0}, {"ods": "A91062", "name": "BICKLEIGH MEDICAL CENTRE", "postcode": "PL6 7AJ", "lat": 50.441469, "lng": -4.082252, "pcn_name": "", "pcn_code": "", "icb": "", "patients": 0}, {"ods": "A91063", "name": "BRITANNIA MEDICAL CENTRE", "postcode": "TQ6 0HJ", "lat": 50.357585, "lng": -3.583049, "pcn_name": "", "pcn_code": "", "icb": "", "patients": 0}, {"ods": "A91064", "name": "BLANDFORD MEDICAL CENTRE", "postcode": "DT11 8RH", "lat": 50.868287, "lng": -2.125096, "pcn_name": "", "pcn_code": "", "icb": "", "patients": 0}, {"ods": "A91065", "name": "LECONFIELD MEDICAL CENTRE", "postcode": "HU17 7LX", "lat": 53.879156, "lng": -0.44862, "pcn_name": "", "pcn_code": "", "icb": "", "patients": 0}, {"ods": "A91067", "name": "FOLKESTONE MEDICAL CENTRE", "postcode": "CT20 3HF", "lat": 51.077084, "lng": 1.138304, "pcn_name": "", "pcn_code": "", "icb": "", "patients": 0}, {"ods": "A91068", "name": "IMJIN MEDICAL CENTRE", "postcode": "GL3 1HW", "lat": 51.890175, "lng": -2.198248, "pcn_name": "", "pcn_code": "", "icb": "", "patients": 0}, {"ods": "A91070", "name": "DUKE OF GLOUCESTER MEDICAL CENTRE", "postcode": "GL7 5RD", "lat": 51.693511, "lng": -1.924408, "pcn_name": "", "pcn_code": "", "icb": "", "patients": 0}, {"ods": "A91071", "name": "WOOLWICH MEDICAL CENTRE", "postcode": "SE18 4AB", "lat": 51.487551, "lng": 0.057504, "pcn_name": "", "pcn_code": "", "icb": "", "patients": 0}, {"ods": "A91072", "name": "MINLEY MEDICAL CENTRE", "postcode": "GU17 9LP", "lat": 51.318001, "lng": -0.819546, "pcn_name": "", "pcn_code": "", "icb": "", "patients": 0}, {"ods": "A91076", "name": "SULTAN MEDICAL CENTRE", "postcode": "PO12 3BY", "lat": 50.802292, "lng": -1.159878, "pcn_name": "", "pcn_code": "", "icb": "", "patients": 0}, {"ods": "A91077", "name": "COLLINGWOOD MEDICAL CENTRE", "postcode": "PO14 1AS", "lat": 50.836462, "lng": -1.193944, "pcn_name": "", "pcn_code": "", "icb": "", "patients": 0}, {"ods": "A91078", "name": "SOUTHWICK PARK MEDICAL CENTRE", "postcode": "PO17 6EJ", "lat": 50.875647, "lng": -1.10189, "pcn_name": "", "pcn_code": "", "icb": "", "patients": 0}, {"ods": "A91079", "name": "ODIHAM MEDICAL CENTRE", "postcode": "RG29 1QT", "lat": 51.240454, "lng": -0.94519, "pcn_name": "", "pcn_code": "", "icb": "", "patients": 0}, {"ods": "A91080", "name": "MIDDLE WALLOP MEDICAL CENTRE", "postcode": "SO20 8DY", "lat": 51.153232, "lng": -1.567397, "pcn_name": "", "pcn_code": "", "icb": "", "patients": 0}, {"ods": "A91081", "name": "WORTHY DOWN MEDICAL CENTRE", "postcode": "SO21 2RG", "lat": 51.11334, "lng": -1.32381, "pcn_name": "", "pcn_code": "", "icb": "", "patients": 0}, {"ods": "A91082", "name": "WINCHESTER MEDICAL CENTRE", "postcode": "SO22 6NQ", "lat": 51.08873, "lng": -1.339919, "pcn_name": "", "pcn_code": "", "icb": "", "patients": 0}, {"ods": "A91083", "name": "MARCHWOOD MEDICAL CENTRE", "postcode": "SO40 4ZG", "lat": 50.892488, "lng": -1.44025, "pcn_name": "", "pcn_code": "", "icb": "", "patients": 0}, {"ods": "A91084", "name": "ALDERSHOT MEDICAL CENTRE", "postcode": "GU11 1AY", "lat": 51.254362, "lng": -0.765632, "pcn_name": "", "pcn_code": "", "icb": "", "patients": 0}, {"ods": "A91085", "name": "HEREFORD MEDICAL CENTRE", "postcode": "HR4 7DD", "lat": 52.086333, "lng": -2.790486, "pcn_name": "", "pcn_code": "", "icb": "", "patients": 0}, {"ods": "A91086", "name": "CAVALRY MEDICAL CENTRE", "postcode": "TW4 6HD", "lat": 51.467313, "lng": -0.389577, "pcn_name": "", "pcn_code": "", "icb": "", "patients": 0}, {"ods": "A91087", "name": "BAIRD MEDICAL CENTRE", "postcode": "SE1 7EH", "lat": 51.49796, "lng": -0.11888, "pcn_name": "", "pcn_code": "", "icb": "", "patients": 0}, {"ods": "A91089", "name": "SCAMPTON MEDICAL CENTRE", "postcode": "LN1 2TR", "lat": 53.298953, "lng": -0.55195, "pcn_name": "", "pcn_code": "", "icb": "", "patients": 0}, {"ods": "A91090", "name": "WADDINGTON MEDICAL CENTRE", "postcode": "LN5 9NB", "lat": 53.172621, "lng": -0.530545, "pcn_name": "", "pcn_code": "", "icb": "", "patients": 0}, {"ods": "A91092", "name": "CHATHAM MEDICAL CENTRE", "postcode": "ME4 4UG", "lat": 51.392447, "lng": 0.533214, "pcn_name": "", "pcn_code": "", "icb": "", "patients": 0}, {"ods": "A91093", "name": "SWANTON MORLEY MEDICAL CENTRE", "postcode": "NR20 4TX", "lat": 52.725871, "lng": 0.974729, "pcn_name": "", "pcn_code": "", "icb": "", "patients": 0}, {"ods": "A91094", "name": "COLCHESTER MEDICAL CENTRE", "postcode": "CO2 7UT", "lat": 51.872808, "lng": 0.885996, "pcn_name": "", "pcn_code": "", "icb": "", "patients": 0}, {"ods": "A91095", "name": "BERECHURCH HALL MEDICAL CENTRE", "postcode": "CO2 9NU", "lat": 51.858666, "lng": 0.893486, "pcn_name": "", "pcn_code": "", "icb": "", "patients": 0}, {"ods": "A91096", "name": "WEETON MEDICAL CENTRE", "postcode": "PR4 3JQ", "lat": 53.820893, "lng": -2.937623, "pcn_name": "", "pcn_code": "", "icb": "", "patients": 0}, {"ods": "A91097", "name": "VIMY MEDICAL CENTRE", "postcode": "DL9 3PS", "lat": 54.364067, "lng": -1.716508, "pcn_name": "", "pcn_code": "", "icb": "", "patients": 0}, {"ods": "A91098", "name": "HARROGATE MEDICAL CENTRE", "postcode": "HG3 2SE", "lat": 53.99524, "lng": -1.597659, "pcn_name": "", "pcn_code": "", "icb": "", "patients": 0}, {"ods": "A91100", "name": "IMPHAL MEDICAL CENTRE", "postcode": "YO10 4HD", "lat": 53.943588, "lng": -1.073697, "pcn_name": "", "pcn_code": "", "icb": "", "patients": 0}, {"ods": "A91101", "name": "FYLINGDALES MEDICAL CENTRE", "postcode": "DL7 9NJ", "lat": 54.291469, "lng": -1.515587, "pcn_name": "", "pcn_code": "", "icb": "", "patients": 0}, {"ods": "A91103", "name": "DISHFORTH MEDICAL CENTRE", "postcode": "YO7 3EZ", "lat": 54.134734, "lng": -1.409515, "pcn_name": "", "pcn_code": "", "icb": "", "patients": 0}, {"ods": "A91104", "name": "ALBERMARLE MEDICAL CENTRE", "postcode": "NE15 0RF", "lat": 55.01734, "lng": -1.871788, "pcn_name": "", "pcn_code": "", "icb": "", "patients": 0}, {"ods": "A91105", "name": "BOULMER MEDICAL CENTRE", "postcode": "NE66 3JF", "lat": 55.423047, "lng": -1.600924, "pcn_name": "", "pcn_code": "", "icb": "", "patients": 0}, {"ods": "A91106", "name": "CHILWELL MEDICAL CENTRE", "postcode": "NG9 5HA", "lat": 52.913166, "lng": -1.249059, "pcn_name": "", "pcn_code": "", "icb": "", "patients": 0}, {"ods": "A91108", "name": "ABINGDON MEDICAL CENTRE", "postcode": "OX13 6BJ", "lat": 51.693087, "lng": -1.292434, "pcn_name": "", "pcn_code": "", "icb": "", "patients": 0}, {"ods": "A91109", "name": "BICESTER MEDICAL CENTRE", "postcode": "OX25 1PP", "lat": 51.84486, "lng": -1.107134, "pcn_name": "", "pcn_code": "", "icb": "", "patients": 0}, {"ods": "A91111", "name": "STONEHOUSE MEDICAL CENTRE", "postcode": "PL1 3QS", "lat": 50.366194, "lng": -4.161655, "pcn_name": "", "pcn_code": "", "icb": "", "patients": 0}, {"ods": "A91112", "name": "DRAKE MEDICAL CENTRE", "postcode": "PL2 2BG", "lat": 50.391225, "lng": -4.184264, "pcn_name": "", "pcn_code": "", "icb": "", "patients": 0}, {"ods": "A91113", "name": "NELSON MEDICAL CENTRE", "postcode": "PO1 3LT", "lat": 50.799475, "lng": -1.109993, "pcn_name": "", "pcn_code": "", "icb": "", "patients": 0}, {"ods": "A91114", "name": "EXCELLENT MEDICAL CENTRE", "postcode": "PO2 8ER", "lat": 50.81836, "lng": -1.097099, "pcn_name": "", "pcn_code": "", "icb": "", "patients": 0}, {"ods": "A91116", "name": "TERN HILL MEDICAL CENTRE", "postcode": "TF9 3QE", "lat": 52.879325, "lng": -2.538598, "pcn_name": "", "pcn_code": "", "icb": "", "patients": 0}, {"ods": "A91117", "name": "HERON MEDICAL CENTRE", "postcode": "BA22 8HT", "lat": 51.011791, "lng": -2.646734, "pcn_name": "", "pcn_code": "", "icb": "", "patients": 0}, {"ods": "A91118", "name": "NORTON MANOR MEDICAL CENTRE", "postcode": "TA2 6PF", "lat": 51.038912, "lng": -3.154413, "pcn_name": "", "pcn_code": "", "icb": "", "patients": 0}, {"ods": "A91120", "name": "ABBEY WOOD MEDICAL CENTRE", "postcode": "BS34 8JH", "lat": 51.50283, "lng": -2.559064, "pcn_name": "", "pcn_code": "", "icb": "", "patients": 0}, {"ods": "A91121", "name": "STAFFORD MEDICAL CENTRE", "postcode": "ST18 0AQ", "lat": 52.815861, "lng": -2.091501, "pcn_name": "", "pcn_code": "", "icb": "", "patients": 0}, {"ods": "A91122", "name": "LICHFIELD MEDICAL CENTRE", "postcode": "WS14 9PY", "lat": 52.66031, "lng": -1.775815, "pcn_name": "", "pcn_code": "", "icb": "", "patients": 0}, {"ods": "A91123", "name": "WOODBRIDGE MEDICAL CENTRE", "postcode": "IP12 3LU", "lat": 52.084762, "lng": 1.399064, "pcn_name": "", "pcn_code": "", "icb": "", "patients": 0}, {"ods": "A91124", "name": "HONINGTON MEDICAL CENTRE", "postcode": "IP31 1EE", "lat": 52.335301, "lng": 0.776341, "pcn_name": "", "pcn_code": "", "icb": "", "patients": 0}, {"ods": "A91125", "name": "WATTISHAM MEDICAL CENTRE", "postcode": "IP7 7RA", "lat": 52.122813, "lng": 0.967792, "pcn_name": "", "pcn_code": "", "icb": "", "patients": 0},